"stop_id","stop_code","stop_name","stop_lat","stop_lon","zone_id","stop_url","location_type","parent_station","municipality_id","stop_desc","stop_timezone","wheelchair_boarding","platform_code","vehicle_type"
"23313","Jo5002","Liperi Linja-autoasema","62.53201718408487","29.38820779513188","2","","0","","426","","","0","",""
"23475","Jo0023","Hukanhauta E","62.585622953851676","29.793795146175643","1","","0","","167","","","0","",""
"23476","Jo0024","Hukanhauta P","62.585226804495484","29.79417128023813","1","","0","","167","","","0","",""
"23483","Jo0001","Aarnionkatu P","62.58307677","29.79587646","1","","0","","167","","","0","",""
"23484","Jo0002","Aarnionkatu E","62.58252483","29.79632605","1","","0","","167","","","0","","3"
"23493","Jo0212","Savikkola P","62.57820037","29.79992479","1","","0","","167","","","0","",""
"23494","Jo0211","Savikkola E","62.57869972","29.79955644","1","","0","","167","","","0","",""
"23501","Jo0149","Niinivaara P","62.588080172961355","29.791821948527044","1","","0","","167","","","0","",""
"23502","Jo0150","Niinivaara E","62.588188631857385","29.791733207851582","1","","0","","167","","","0","",""
"23515","Jo0171","Peltolankatu E","62.59386975661315","29.76640231435352","1","","0","","167","","","0","",""
"23516","Jo0208","Sairaala PKKS E","62.59246648","29.78074957","1","","0","","167","","","0","",""
"23517","Jo0207","Sairaala PKKS P","62.592924783637415","29.779646765582132","1","","0","","167","","","0","",""
"23518","Jo0270","Vesitorninpuisto P","62.59143217","29.78845416","1","","0","","167","","","0","",""
"23519","Jo0271","Vesitorninpuisto E","62.590977283487234","29.789280011791075","1","","0","","167","","","0","",""
"23530","Jo0239","Tiaisenpuisto P","62.59488596474646","29.77590579254057","1","","0","","167","","","0","",""
"23531","Jo0240","Tiaisenpuisto E","62.59534757011778","29.775685425606365","1","","0","","167","","","0","",""
"23532","Jo0051","Karjalankatu L","62.59580907","29.77867149","1","","0","","167","","","0","",""
"23533","Jo0050","Karjalankatu I","62.5956382","29.77681936","1","","0","","167","","","0","",""
"23556","","JOENSUU","62.60090281655986","29.777020098573892","1","","0","","167","","","0","",""
"23557","Jo0056","Kauppatori L","62.600120577819986","29.760961186508183","1","","0","","167","","","0","",""
"23575","Jo0282","Joensuun pääkirjasto I","62.60203606","29.75114032","1","","0","","167","","","0","",""
"23586","Jo0067","Kettuvaara  I","62.60299651","29.80287577","1","","0","","167","","","0","",""
"23587","Jo0066","Kettuvaara  L","62.60302158","29.80114855","1","","0","","167","","","0","",""
"23590","Jo0277","Yliopistokatu P","62.60468642","29.74164807","1","","0","","167","","","0","",""
"23591","Jo0278","Yliopistokatu E","62.60424536","29.7422278","1","","0","","167","","","0","",""
"23604","","Koulukatu P","62.606784","29.761667","1","","0","","167","","","0","",""
"23605","","Koulukatu E","62.60696","29.761819","1","","0","","167","","","0","",""
"23619","Jo0244","Tulliportinkatu E","62.61394177","29.73971893","1","","0","","167","","","0","",""
"23632","Jo0038","Kaislakatu P","62.61308051292914","29.739090654805338","1","","0","","167","","","0","",""
"23633","Jo0037","Kaislakatu E","62.61298569428422","29.73878481777121","1","","0","","167","","","0","",""
"23638","Jo0236","Teollisuuskatu P","62.609286410344424","29.775589330000404","1","","0","","167","","","0","",""
"23639","Jo0235","Teollisuuskatu E","62.60905129","29.77544788","1","","0","","167","","","0","",""
"23642","Jo0035","Jukolankatu P","62.61473798","29.80970723","1","","0","","167","","","0","",""
"23643","Jo0034","Jukolankatu L","62.61413474","29.80862609","1","","0","","167","","","0","",""
"23646","Jo0145","Mutala P","62.61828051","29.78894642","1","","0","","167","","","0","",""
"23647","Jo0144","Mutala E","62.6174406","29.78890577","1","","0","","167","","","0","",""
"23658","Jo0256","Utran kirkko I","62.62079893","29.87277588","1","","0","","167","","","0","",""
"23659","Jo0255","Utran kirkko L","62.6207708","29.87265852","1","","0","","167","","","0","",""
"23660","Jo0152","Noljakantori P","62.62607514","29.69559788","1","","0","","167","","","0","",""
"23661","Jo0151","Noljakantori E","62.62507646","29.69562124","1","","0","","167","","","0","",""
"23672","Jo0153","Noljakka L","62.62726970519802","29.695908221720945","1","","0","","167","","","0","",""
"23673","","Noljakka ramppi I","62.627321923986635","29.70078959844589","1","","0","","167","","","0","",""
"23676","Jo0130","Marjalantie I","62.62874006","29.69256615","1","","0","","167","","","0","",""
"23677","Jo0129","Marjalantie L","62.62932597","29.69146073","1","","0","","167","","","0","",""
"23688","Jo0095","Kuusela L","62.63110772","29.68577594","1","","0","","167","","","0","",""
"23689","Jo0096","Kuusela I","62.63055344","29.68747192","1","","0","","167","","","0","",""
"23690","Jo0131","Marjalantori I","62.6326167","29.66172431","1","","0","","167","","","0","",""
"23691","Jo0132","Marjalantori L","62.63270018550792","29.66054043055974","1","","0","","167","","","0","",""
"53325","","Ilomantsi linja-autoasema","62.671864","30.933886","6","","0","","146","","","0","",""
"53769","","Tohmajärvi MH (Järnefeltintie 8)","62.224659","30.33461","4","","0","","848","","","0","",""
"106201","Jo0043","Kanervala P","62.614273","29.768993","1","","0","","167","","","0","","3"
"111725","","Lentoasemantie L","62.63533494","29.63747726","1","","0","","426","","","0","",""
"111750","Jo0197","Reijola E","62.54346100924526","29.839916775376672","2","","0","","167","","","0","",""
"111751","Jo0198","Reijola P","62.54421740401493","29.83851533681088","2","","0","","167","","","0","",""
"111752","Jo0199","Reijolan koulu P","62.54552236","29.83386923","2","","0","","167","","","0","",""
"111754","Jo0224","Siirtolantie E","62.54761226","29.8297132","1","","0","","167","","","0","",""
"111755","Jo0225","Siirtolantie P","62.54792903","29.82921049","1","","0","","167","","","0","",""
"111756","Jo0233","Tempontie P","62.54991808398418","29.826865729407302","1","","0","","167","","","0","",""
"111757","Jo0234","Tempontie E","62.54941773","29.82735403","1","","0","","167","","","0","",""
"111758","Jo0013","Haapajoki P","62.55548926583064","29.82168925596904","1","","0","","167","","","0","",""
"111759","Jo0014","Haapajoki E","62.55535313505553","29.82180859078819","1","","0","","167","","","0","",""
"111760","Jo0089","Kukkola  P","62.55951396922231","29.81731279671185","1","","0","","167","","","0","",""
"111761","Jo0088","Kukkola E","62.56080824100877","29.815901660513838","1","","0","","167","","","0","",""
"111762","Jo0265","Varpaniemi E","62.564450603228835","29.81181220237203","1","","0","","167","","","0","",""
"111763","Jo0264","Varpaniemi P","62.564919137868905","29.81130329993372","1","","0","","167","","","0","",""
"111766","Jo0049","Karhunmäki E","62.569688762545276","29.805862860329345","1","","0","","167","","","0","",""
"111768","Jo0083","Kotilahti P","62.57393506457779","29.802433094422156","1","","0","","167","","","0","",""
"111769","Jo0082","Kotilahti E","62.57403820983712","29.802369880612446","1","","0","","167","","","0","",""
"112186","Jo0148","Nepenmäki E","62.588525","29.783554","1","","0","","167","","","0","",""
"113807","Jo0012","Erkinpellontie I","62.62728019656058","29.68930301557659","1","","0","","167","","","0","",""
"113808","Jo0156","Ojalankaarto I","62.63311214102968","29.691727040852726","1","","0","","167","","","0","",""
"114085","Jo0275","Yliopisto P","62.60433657987242","29.747651599234217","1","","0","","167","","","0","",""
"114086","Jo0276","Yliopisto E","62.605139041742355","29.746068167138294","1","","0","","167","","","0","",""
"114090","Jo0042","Kanervala E","62.614298","29.768644","1","","0","","167","","","0","","3"
"114448","Jo0246","Tuohitie L","62.58098821","29.79519481","1","","0","","167","","","0","",""
"114449","Jo0177","Petäikkölänkatu P","62.57939994","29.78996726","1","","0","","167","","","0","",""
"114456","Jo0099","Laiduntie P","62.57684769944774","29.810208811971577","1","","0","","167","","","0","",""
"114457","Jo0161","Paimenpojantie P","62.57980052","29.80683461","1","","0","","167","","","0","",""
"114459","Jo0114","Lonikintie L","62.579209461323224","29.8014260350107","1","","0","","167","","","0","","3"
"114460","Jo0281","Yrittäjäntie E","62.58160688","29.80476071","1","","0","","167","","","0","",""
"114462","Jo0228","Sompatie E","62.58412627","29.80382226","1","","0","","167","","","0","",""
"114465","Jo0179","Pielisensuu P","62.593572416315006","29.784260961071656","1","","0","","167","","","0","",""
"114466","Jo0178","Pielisensuu E","62.59350626857111","29.784357593504062","1","","0","","167","","","0","",""
"114468","Jo0090","Kuntohovi E","62.590317","29.782147","1","","0","","167","","","0","",""
"114472","Jo0044","Kannelpuisto L","62.60058853","29.82642157","1","","0","","167","","","0","",""
"114473","Jo0045","Kannelpuisto I","62.60004901","29.82791147","1","","0","","167","","","0","",""
"114474","Jo0229","Suvikuja L","62.58953047525662","29.78737120055027","1","","0","","167","","","0","",""
"114477","Jo0079","Konepaja E","62.58708966","29.77141895","1","","0","","167","","","0","",""
"114478","Jo0183","Pyhäselänkatu L","62.58555583","29.76762032","1","","0","","167","","","0","",""
"114479","Jo0087","Kuhasalontie E","62.58456563","29.76232746","1","","0","","167","","","0","",""
"114482","Jo0135","Meijeri L","62.60176423842344","29.78242714841031","1","","0","","167","","","0","",""
"114483","Jo0136","Meijeri I","62.60159426572602","29.785447708336076","1","","0","","167","","","0","",""
"114484","Jo0030","Kimmel E","62.600707192271216","29.77479764481484","1","","0","","167","","","0","",""
"114485","Jo0031","Kimmel P","62.60053356795416","29.774796518959135","1","","0","","167","","","0","",""
"114486","Jo0005","Itäranta E","62.59946402423748","29.77470206083174","1","","0","","167","","","0","",""
"114487","Jo0167","Pappilantie L","62.60279937","29.79607958","1","","0","","167","","","0","",""
"114491","Jo0209","Sariolankatu L","62.60292678","29.80901097","1","","0","","167","","","0","",""
"114493","Jo0157","Oksoja L","62.6030454","29.81655097","1","","0","","167","","","0","",""
"114496","Jo0028","Iiksenportti L","62.5997108","29.83390405","1","","0","","167","","","0","",""
"114497","Jo0029","Iiksenportti I","62.59986649","29.83618218","1","","0","","167","","","0","",""
"114498","Jo0073","Kissamäentie  L","62.60081286","29.83996375","1","","0","","167","","","0","",""
"114499","Jo0074","Kissamäentie  I","62.60113368","29.84123794","1","","0","","167","","","0","",""
"114502","Jo0186","Pyörretie P","62.59910225","29.82746705","1","","0","","167","","","0","",""
"114503","Jo0185","Pyörretie E","62.59862895","29.82627432","1","","0","","167","","","0","",""
"114504","Jo0155","Nyyrikinkatu I","62.59742766","29.81694346","1","","0","","167","","","0","",""
"114505","Jo0154","Nyyrikinkatu L","62.59782605","29.81438796","1","","0","","167","","","0","",""
"114506","Jo0226","Sommelo L","62.59900798","29.80871028","1","","0","","167","","","0","",""
"114507","Jo0227","Sommelo I","62.59863383","29.81051422","1","","0","","167","","","0","",""
"114508","Jo0111","Lepikkoaho L","62.60027893","29.80396256","1","","0","","167","","","0","",""
"114533","Jo0068","Ketunpesät  L","62.56053841","29.89370218","1","","0","","167","","","0","",""
"114535","Jo0092","Kupluskylä E","62.62825356530966","29.88838386593829","1","","0","","167","","","0","",""
"114536","Jo0250","Törö P","62.62520785","29.8833416","1","","0","","167","","","0","",""
"114537","Jo0249","Törö E","62.62456322","29.88269544","1","","0","","167","","","0","",""
"114541","Jo0143","Mustosenkatu I","62.6201693","29.8686918","1","","0","","167","","","0","",""
"114542","Jo0142","Mustosenkatu P","62.62010802","29.86746601","1","","0","","167","","","0","",""
"114543","Jo0269","Vesisahantie P","62.62266796","29.86566522","1","","0","","167","","","0","",""
"114544","Jo0268","Vesisahantie E","62.62295748","29.86518325","1","","0","","167","","","0","",""
"114561","Jo0020","Hiekkalantie L","62.6251877","29.86108037","1","","0","","167","","","0","",""
"114562","Jo0019","Hiekkalantie I","62.62524867","29.85982016","1","","0","","167","","","0","",""
"114563","Jo0232","Talastie L","62.62381208","29.85645252","1","","0","","167","","","0","",""
"114564","Jo0078","Koillisväylä P","62.62298870454215","29.856548546508254","1","","0","","167","","","0","",""
"114565","Jo0077","Koillisväylä E","62.62344098","29.85599199","1","","0","","167","","","0","",""
"114566","Jo0075","Koillisportti  L","62.62668315943608","29.85287281821179","1","","0","","167","","","0","",""
"114568","Jo0202","Repsikankatu L","62.62765758","29.84738362","1","","0","","167","","","0","",""
"114569","Jo0253","Upokaskuja I","62.62739543","29.84261506","1","","0","","167","","","0","",""
"114570","Jo0259","Utrantori P","62.62011551500948","29.858419342540866","1","","0","","167","","","0","",""
"114571","Jo0103","Lasinpuhaltajantie I","62.61900661","29.85907353","1","","0","","167","","","0","",""
"114572","Jo0102","Lasinpuhaltajantie L","62.61882463","29.8571561","1","","0","","167","","","0","",""
"114573","Jo0138","Miilunpolttajantie I","62.61830538","29.85284149","1","","0","","167","","","0","",""
"114574","Jo0137","Miilunpolttajantie L","62.61801774","29.85131194","1","","0","","167","","","0","",""
"114575","Jo0100","Laivurintie L","62.61680226","29.84527833","1","","0","","167","","","0","",""
"114576","Jo0101","Laivurintie I","62.61698512","29.84661248","1","","0","","167","","","0","",""
"114577","Jo0258","Utrantie I","62.61669292","29.83861168","1","","0","","167","","","0","",""
"114578","Jo0257","Utrantie L","62.61675379","29.83836734","1","","0","","167","","","0","",""
"114579","Jo0267","Verkkotie E","62.61762678","29.83762331","1","","0","","167","","","0","",""
"114580","Jo0180","Pilkkitie E","62.62070068","29.83778876","1","","0","","167","","","0","",""
"114581","Jo0091","Kuohutie I","62.6217521","29.83285104","1","","0","","167","","","0","",""
"114582","Jo0017","Harustie I","62.62179484","29.82739315","1","","0","","167","","","0","",""
"114583","Jo0206","Ruuhitie I","62.62129728","29.81966778","1","","0","","167","","","0","",""
"114585","Jo0105","Latolankatu I","62.61700579","29.82986201","1","","0","","167","","","0","",""
"114586","Jo0104","Latolankatu L","62.617118","29.829175","1","","0","","167","","","0","",""
"114588","Jo0169","Pataluoto L","62.61287047","29.83038611","1","","0","","167","","","0","",""
"114589","Jo0251","Uikunkatu L","62.610872984139476","29.823825295736548","1","","0","","167","","","0","",""
"114590","Jo0182","Pursitie P","62.61124592","29.81369052","1","","0","","167","","","0","",""
"114593","Jo0205","Ruoritie P","62.61347044","29.81378024","1","","0","","167","","","0","",""
"114594","Jo0189","Rantakylä I","62.61517792255809","29.81531578465559","1","","0","","167","","","0","",""
"114595","Jo0190","Rantakylä L","62.615569399640954","29.817233057671384","1","","0","","167","","","0","",""
"114598","Jo0203","Riippapuisto P","62.618459","29.819061","1","","0","","167","","","0","",""
"114599","Jo0109","Lauttatie E","62.61613722","29.80970785","1","","0","","167","","","0","",""
"114600","Jo0033","Juhanintie E","62.61950879","29.80946717","1","","0","","167","","","0","",""
"114601","Jo0159","Ollilanpuisto P","62.621898","29.80898405","1","","0","","167","","","0","",""
"114602","Jo0243","Toukolankatu E","62.6241645","29.80746955","1","","0","","167","","","0","",""
"114603","Jo0263","Varikko I","62.62578101","29.80472573","1","","0","","167","","","0","",""
"114604","Jo0262","Varikko L","62.62583819","29.80456555","1","","0","","167","","","0","",""
"114605","Jo0188","Raivaajantie I","62.62681207","29.800578","1","","0","","167","","","0","",""
"114607","Jo0053","Kartoittajantie P","62.62646269","29.79595427","1","","0","","167","","","0","",""
"114608","Jo0054","Kartoittajantie E","62.62703135","29.79654865","1","","0","","167","","","0","",""
"114609","Jo0107","Lattamiehentie P","62.6228445","29.79206118","1","","0","","167","","","0","",""
"114610","Jo0106","Lattamiehentie E","62.6218348","29.79107634","1","","0","","167","","","0","",""
"114615","Jo0094","Kurjenkatu I","62.61395203","29.80467537","1","","0","","167","","","0","",""
"114616","Jo0093","Kurjenkatu L","62.61371312","29.80268904","1","","0","","167","","","0","",""
"114617","Jo0147","Mutalan koulu I","62.61395375","29.78707443","1","","0","","167","","","0","",""
"114618","Jo0146","Mutalan koulu L","62.61346085","29.78572769","1","","0","","167","","","0","",""
"114630","Jo0217","Siihtala I","62.60895546","29.78565014","1","","0","","167","","","0","",""
"114631","Jo0216","Siihtala L","62.60820464","29.78384754","1","","0","","167","","","0","",""
"114632","Jo0195","Rauhanpuisto I","62.60735717","29.77528667","1","","0","","167","","","0","",""
"114633","Jo0194","Rauhanpuisto E","62.60712126","29.77349607","1","","0","","167","","","0","",""
"114634","Jo0172","Penttilänkatu E","62.59586357","29.77111832","1","","0","","167","","","0","",""
"114683","Jo0007","Aurinkokatu L","62.63217154","29.66832451","1","","0","","167","","","0","",""
"114684","Jo0008","Aurinkokatu P","62.63254374","29.66918618","1","","0","","167","","","0","",""
"114685","Jo0113","Lintuaidantie E","62.6346134","29.668666","1","","0","","167","","","0","",""
"114689","Jo0098","Kuuselantori P","62.62816187999999","29.685127764239724","1","","0","","167","","","0","",""
"114690","Jo0097","Kuuselantori E","62.628159413637064","29.685067414536892","1","","0","","167","","","0","",""
"114691","Jo0011","Erkinpellontie L","62.62715010854154","29.68982510151859","1","","0","","167","","","0","",""
"114692","","Pesolantie P","62.62489718321445","29.691637499292387","1","","0","","167","","","0","",""
"114693","Jo0272","Vilniuksenkatu P","62.62216428","29.69038163","1","","0","","167","","","0","",""
"114694","Jo0204","Roskildenkatu P","62.62004348","29.69315132","1","","0","","167","","","0","",""
"114695","Jo0139","Mujusenpiha P","62.61759298","29.69474885","1","","0","","167","","","0","",""
"114696","Jo0110","Lehtokangas L","62.61599415","29.70253147","1","","0","","167","","","0","",""
"114697","Jo0039","Kaislaranta L","62.61650510035525","29.707026162709116","1","","0","","167","","","0","",""
"114698","Jo0123","Lähdesuo P","62.62338291","29.69823318","1","","0","","167","","","0","",""
"114699","Jo0124","Lähdesuo E","62.62291437","29.69958976","1","","0","","167","","","0","",""
"114700","Jo0119","Lykynnurmi P","62.621454","29.70420532","1","","0","","167","","","0","",""
"114701","Jo0120","Lykynnurmi E","62.6210141","29.70528706","1","","0","","167","","","0","",""
"114702","Jo0223","Siilaisentori E","62.61894851","29.70903291","1","","0","","167","","","0","",""
"114703","Jo0117","Louhosaukio L","62.62036693025883","29.70866455693393","1","","0","","167","","","0","",""
"114704","Jo0118","Louhosaukio I","62.620297234559345","29.710690512827405","1","","0","","167","","","0","",""
"114705","Jo0221","Siilaisentie L","62.61946038150542","29.715915428955174","1","","0","","167","","","0","",""
"114706","Jo0222","Siilaisentie I","62.61913824","29.71773282","1","","0","","167","","","0","",""
"114708","Jo0219","Siilaisen terveysasema P","62.61615238368082","29.72811946976248","1","","0","","167","","","0","",""
"114709","Jo0220","Siilaisen terveysasema E","62.616113524873015","29.728045924492523","1","","0","","167","","","0","",""
"114716","Jo0289","Kuusamatie P","62.61270345294819","29.733645804893925","1","","0","","167","","","0","",""
"114717","Jo0288","Kuusamatie E","62.61264974122627","29.73358664418043","1","","0","","167","","","0","",""
"114724","Jo0290","Tiedepuisto L","62.597506870565205","29.74257230919301","1","","0","","167","","","0","",""
"114725","Jo0291","Tiedepuisto I","62.597457689163654","29.742689093254","1","","0","","167","","","0","",""
"114732","Jo0293","Ravirata I","62.59892143113656","29.736907720451235","1","","0","","167","","","0","",""
"114733","Jo0286","Kirkonmäki L","62.59590773384788","29.750811847885572","1","","0","","167","","","0","",""
"114734","Jo0287","Kirkonmäki I","62.59566869065095","29.75193018650831","1","","0","","167","","","0","",""
"114735","Jo0285","Kirkkokatu P","62.59878606239038","29.756719728836202","1","","0","","167","","","0","",""
"114736","Jo0284","Kirkkokatu E","62.59847971819224","29.756430746032972","1","","0","","167","","","0","",""
"114737","Jo0121","Lyseo L","62.601648626556475","29.75311205499496","1","","0","","167","","","0","","3"
"114752","Jo0214","Siepontie P","62.607817199844646","29.73928412321685","1","","0","","167","","","0","",""
"114753","Jo0213","Siepontie E","62.607323770348955","29.7395442509191","1","","0","","167","","","0","",""
"114755","Jo0261","Vanamokatu E","62.61013018","29.74493688","1","","0","","167","","","0","",""
"114757","Jo0175","Petrankatu E","62.60760279","29.74795923","1","","0","","167","","","0","",""
"114759","Jo0125","Länsikatu E","62.60437945","29.75038609","1","","0","","167","","","0","",""
"114767","Jo0181","Pt-talo E","62.60363752","29.76115828","1","","0","","167","","","0","",""
"114768","Jo0040","Kanavaranta L","62.60043537703464","29.766839642089753","1","","0","","167","","","0","",""
"114769","Jo0041","Kanavaranta I","62.600479711988804","29.766508825463276","1","","0","","167","","","0","",""
"114770","Jo0279","Yläsatamakatu L","62.60391047","29.7649501","1","","0","","167","","","0","",""
"114771","Jo0280","Yläsatamakatu I","62.60379952","29.7655045","1","","0","","167","","","0","",""
"114772","Jo0273","Virastotalo P","62.60539134","29.76742049","1","","0","","167","","","0","",""
"114773","Jo0274","Virastotalo E","62.60594944179051","29.76792225674562","1","","0","","167","","","0","",""
"114775","Jo0112","Lepikkoaho I","62.59986613","29.805101","1","","0","","167","","","0","",""
"114776","Jo0006","Itäranta P","62.59939167","29.77471951","1","","0","","167","","","0","",""
"114777","Jo0230","Suvikuja I","62.58956771900976","29.788672794063466","1","","0","","167","","","0","",""
"114778","Jo0187","Raivaajantie L","62.62718066","29.79891463","1","","0","","167","","","0","",""
"115158","Jo0036","Jukolanportti P","62.6280645","29.79737764","1","","0","","167","","","0","",""
"115161","Jo0060","Koskikatu  P","62.600954724867606","29.758731104561473","1","","0","","167","","","0","","3"
"115162","Jo0059","Keskuspuisto P","62.60157304","29.75929217","1","","0","","167","","","0","","3"
"115164","Jo0061","Koskikatu  I","62.60047366343481","29.758951926155504","1","","0","","167","","","0","","3"
"115165","Jo0166","Koskikatu I","62.600293458638596","29.759907014873185","1","","0","","167","","","0","","3"
"115166","Jo0080","Koskikatu L","62.60054730454857","29.75873234769688","1","","0","","167","","","0","","3"
"115168","Jo0058","Kauppatori I","62.59991644712466","29.761843785323663","1","","0","","167","","","0","","3"
"115255","Jo0168","Pappilantie I","62.60281096","29.79748565","1","","0","","167","","","0","",""
"115256","Jo0210","Sariolankatu I","62.60294812","29.81037323","1","","0","","167","","","0","",""
"115257","Jo0158","Oksoja I","62.60305961","29.81885689","1","","0","","167","","","0","",""
"116381","Jo0108","Laulupuuntie  I","62.62711242969111","29.851398351802956","1","","0","","167","","","0","",""
"116383","Jo0052","Karjamäentie E","62.57983345","29.80672815","1","","0","","167","","","0","",""
"116384","Jo0025","Hukanhaudantie P","62.58263420638863","29.788167664533145","1","","0","","167","","","0","",""
"141511","","Ylämylly I","62.614244104227424","29.547224089003635","2","","0","","426","","","0","",""
"161327","Jo0128","Mansikkatie E","62.53663099","29.83593946","2","","0","","167","","","0","",""
"161328","Jo0127","Mansikkatie P","62.53705508","29.8353328","2","","0","","167","","","0","",""
"161329","Jo0026","Huvimäentie P","62.53216598","29.84219932","2","","0","","167","","","0","",""
"161330","Jo0021","Hirvolantie P","62.53432156","29.84051336","2","","0","","167","","","0","",""
"161331","Jo0022","Hirvolantie E","62.53407783","29.84079479","2","","0","","167","","","0","",""
"161333","Jo0140","Mulontie P","62.52940698186029","29.843507124230587","2","","0","","167","","","0","",""
"161334","Jo0141","Mulontie E","62.52832268966131","29.844781353720478","2","","0","","167","","","0","",""
"161371","Jo5011","Tehtaantie P","62.61767379","29.55617548","2","","0","","426","","","0","",""
"161924","Jo5008","Lampitie L","62.615652297186784","29.51426352026282","2","","0","","426","","","0","",""
"161927","Jo5007","Sompalampi L","62.61455943490514","29.520933521972424","2","","0","","426","","","0","",""
"161928","Jo5009","Honkamonttu I","62.61349442","29.52705967","2","","0","","426","","","0","",""
"161929","Jo5006","Honkamonttu L","62.61350587","29.52698666","2","","0","","426","","","0","",""
"161930","Jo5005","Honkapuisto L","62.61265359","29.53244071","2","","0","","426","","","0","",""
"161931","Jo5010","Honkapuisto I","62.61267416","29.53230413","2","","0","","426","","","0","",""
"161932","Jo5004","Katajakuja L","62.61205297","29.53609878","2","","0","","426","","","0","",""
"161933","Jo5016","Hopri E","62.63442131","29.54574146","2","","0","","426","","","0","",""
"161935","Jo5015","Jyrinlenkki","62.63620281","29.54639869","2","","0","","426","","","0","",""
"161937","Jo0115","Louhelantie P","62.54083032103782","29.836833300807204","2","","0","","167","","","0","",""
"161938","Jo0116","Louhelantie E","62.54040579559945","29.835778816864813","2","","0","","167","","","0","",""
"164333","Jo0396","Enon koulut","62.788577417014544","30.15621340846394","3","","0","","167","","","0","","3"
"164334","Jo0009","Eno","62.798902471816405","30.149556499336683","3","","0","","167","","","0","","3"
"164479","Jo0160","Oravanmarjantie I","62.626168170559644","29.828252349058985","1","","0","","167","","","0","","3"
"164480","Jo0237","Teppola P","62.61144862","29.79638033","1","","0","","167","","","0","",""
"164481","Jo0238","Teppola E","62.6110503846086","29.795072267008724","1","","0","","167","","","0","",""
"170028","Jo0062","Kesätuulentie I","62.63340435","29.6520245","1","","0","","167","","","0","",""
"170029","Jo0063","Kesätuulentie L","62.6333052","29.65274283","1","","0","","167","","","0","",""
"172927","","Onkamo th P","62.311854","30.123747","4","","0","","848","","","0","",""
"172928","","Onkamonsuora P","62.326279","30.123488","4","","0","","848","","","0","",""
"172929","","Onkamonsuora E","62.326719","30.123476","4","","0","","848","","","0","",""
"172930","","Valtamaa E","62.334944","30.120486","4","","0","","848","","","0","",""
"172931","","Valtamaa P","62.335782","30.119955","4","","0","","848","","","0","",""
"172932","","Tikkalan koulu (vt6) E","62.346913","30.111949","3","","0","","848","","","0","",""
"172933","","Tikkalan koulu (vt6) P","62.345594","30.113088","3","","0","","848","","","0","",""
"172934","","Tikkala (vt6) E","62.355672","30.105897","3","","0","","848","","","0","",""
"172935","","Tikkala (vt6) P","62.356582","30.105411","3","","0","","848","","","0","",""
"172936","","Hernevaara (Tohmajärvi) E","62.372625","30.096586","3","","0","","848","","","0","",""
"172937","","Hernevaara (Tohmajärvi) P","62.373217","30.09626","3","","0","","848","","","0","",""
"172938","","Haukioja E","62.385357","30.090044","3","","0","","848","","","0","",""
"172939","","Haukioja P","62.386025","30.0899","3","","0","","848","","","0","",""
"172940","Jo1185","Suurkangas E","62.396972","30.09006","3","","0","","167","","","0","",""
"172941","Jo1184","Suurkangas P","62.397717","30.090098","3","","0","","167","","","0","",""
"172942","Jo1183","Rauansalontie E","62.406706","30.088237","3","","0","","167","","","0","",""
"172943","Jo1182","Rauansalontie P","62.407521","30.087527","3","","0","","167","","","0","",""
"172944","Jo1181","Elinmyllyntie E","62.424543","30.065214","3","","0","","167","","","0","",""
"172945","Jo1180","Elinmyllyntie P","62.424994","30.06433","3","","0","","167","","","0","",""
"172946","Jo1179","Karhuntaival E","62.434227","30.04186","2","","0","","167","","","0","",""
"172947","Jo1178","Karhuntaival P","62.434828","30.039013","2","","0","","167","","","0","",""
"172948","Jo1177","Honkavaara (Joensuu) E","62.43847181374556","30.02609514674026","2","","0","","167","","","0","","3"
"172949","","Honkavaara (Joensuu) P","62.43955556","30.02414943","2","","0","","167","","","0","",""
"172950","","Kiihtelystie th E","62.44639948","30.015909","2","","0","","167","","","0","",""
"172951","Jo1174","Kiihtelystie th P","62.447061","30.015162","2","","0","","167","","","0","",""
"172952","Jo1173","Hammasjärvi E","62.45573","30.009306","2","","0","","167","","","0","",""
"172953","Jo1172","Hammasjärvi P","62.457311","30.008068","2","","0","","167","","","0","",""
"172954","","Pykäliköntie E","62.46600153","29.99174575","2","","0","","167","","","0","",""
"172955","Jo1170","Pykäliköntie P","62.467545","29.9862","2","","0","","167","","","0","",""
"172956","Jo1169","Mökinpelto E","62.47094","29.97406","2","","0","","167","","","0","",""
"172957","Jo1168","Mökinpelto P","62.471804","29.971041","2","","0","","167","","","0","",""
"172958","Jo1167","Haavanpää (vt6) E","62.476168","29.958858","2","","0","","167","","","0","",""
"172959","","Karjalanmäki E","62.48083947","29.95095378","2","","0","","167","","","0","",""
"172960","","Karjalanmäki P","62.48175919","29.94994948","2","","0","","167","","","0","",""
"172961","","Tikunseläntie E","62.4901726","29.94240291","2","","0","","167","","","0","",""
"172962","","Tikunseläntie P","62.49114939","29.94126214","2","","0","","167","","","0","",""
"172963","","Kukkuraitti E","62.49552759","29.93443743","2","","0","","167","","","0","",""
"172964","","Kukkuraitti P","62.49604595","29.9334097","2","","0","","167","","","0","",""
"172965","","Ruunavaara th E","62.49862496","29.9274435","2","","0","","167","","","0","",""
"172966","","Ruunavaara th P","62.49936468","29.92551839","2","","0","","167","","","0","",""
"172967","","Savikko (Joensuu) E","62.50576748","29.90908778","2","","0","","167","","","0","",""
"172968","","Savikko (Joensuu) P","62.50858627","29.90312349","2","","0","","167","","","0","",""
"172969","","Pitkämäki (Joensuu) E","62.51160638","29.89709793","2","","0","","167","","","0","",""
"172971","","Mähölä E","62.5153205","29.88642744","2","","0","","167","","","0","",""
"172973","","Metsäpelto E","62.51736485","29.87772445","2","","0","","167","","","0","",""
"172974","","Metsäpelto P","62.51756844","29.87676584","2","","0","","167","","","0","",""
"172975","","Kumpu th E","62.51906666","29.86961794","2","","0","","167","","","0","",""
"172976","","Kumpu th P","62.51939553","29.86818227","2","","0","","167","","","0","",""
"172977","","Niittylahti th","62.52113056","29.86266627","2","","0","","167","","","0","",""
"172978","","Mulonväylä P","62.52217958","29.86048228","2","","0","","167","","","0","",""
"172979","","Mulonväylä E","62.52246256","29.85994409","2","","0","","167","","","0","",""
"172981","","Leinosenmäki P","62.52758228","29.85446222","2","","0","","167","","","0","",""
"172982","","Kaukolantie E","62.53272124","29.85039892","2","","0","","167","","","0","",""
"172983","","Kaukolantie P","62.53398055","29.84943011","2","","0","","167","","","0","",""
"172984","","Mansikka-ahontie E","62.538082","29.846206","2","","0","","167","","","0","",""
"172989","","Käpykangas P","62.61874476388038","29.773741192659482","1","","0","","167","","","0","",""
"172992","Jo1133","Raatekangas P","62.626427210768405","29.779179714294557","1","","0","","167","","","0","",""
"173003","","Salmitie (Kontiolahti) P","62.73078265","29.87001631","2","","0","","276","","","0","",""
"173004","","Salmitie (Kontiolahti) E","62.73220959","29.86988054","2","","0","","276","","","0","",""
"173005","","Pyytivaara th E","62.74377404","29.86571564","2","","0","","276","","","0","",""
"173006","","Pyytivaara th P","62.74506675","29.86492793","2","","0","","276","","","0","",""
"173008","","Vaskela P","62.75721482","29.85580686","2","","0","","276","","","0","",""
"173010","Jo2237","Romo th P","62.782352","29.855009","2","","0","","276","","","0","",""
"173011","Jo2238","Heinävaara th E","62.791825","29.849865","3","","0","","276","","","0","",""
"173012","Jo2239","Heinävaara th P","62.792859","29.848944","3","","0","","276","","","0","",""
"173013","Jo2240","Puhakkala E","62.796395","29.845539","3","","0","","276","","","0","",""
"173014","Jo2241","Puhakkala P","62.797199","29.844832","3","","0","","276","","","0","",""
"173015","Jo2242","Kirnukallio E","62.809051","29.837085","3","","0","","276","","","0","",""
"173016","Jo2243","Kirnukallio P","62.809834","29.837003","3","","0","","276","","","0","",""
"173017","Jo2244","Varparanta th E","62.818762","29.838786","3","","0","","276","","","0","",""
"173018","Jo2245","Varparanta th P","62.820002","29.839181","3","","0","","276","","","0","",""
"173019","Jo2246","Pesälä E","62.82425","29.840553","3","","0","","276","","","0","",""
"173020","Jo2247","Pesälä P","62.824741","29.840698","3","","0","","276","","","0","",""
"173021","Jo2248","Kantala (Kontiolahti) E","62.8337","29.843587","3","","0","","276","","","0","",""
"173022","Jo2249","Kantala (Kontiolahti) P","62.834566","29.843847","3","","0","","276","","","0","",""
"173023","Jo2250","Leppälä (Kontiolahti) E","62.844566","29.848607","3","","0","","276","","","0","",""
"173024","Jo2251","Leppälä (Kontiolahti) P","62.844903","29.848797","3","","0","","276","","","0","",""
"173025","Jo2252","Katajavaara (Kontiolahti) E","62.850213","29.851828","3","","0","","276","","","0","",""
"173026","Jo2253","Katajavaara (Kontiolahti) P","62.85119","29.852375","3","","0","","276","","","0","",""
"173027","Jo2254","Ylä-Katajavaara E","62.85668","29.8545","3","","0","","276","","","0","",""
"173029","Jo2260","Karvosaho P","62.887416","29.834482","3","","0","","276","","","0","",""
"173030","Jo2261","Karvosaho E","62.887688","29.83435","3","","0","","276","","","0","",""
"173031","Jo2262","Venejärvi E","62.938401","29.819029","4","","0","","276","","","0","",""
"173032","Jo2263","Venejärvi P","62.938976","29.818592","4","","0","","276","","","0","",""
"173033","Jo2270","Romppala th E","62.956336","29.80466","4","","0","","276","","","0","",""
"173034","Jo2271","Romppala th P","62.957197","29.803855","4","","0","","276","","","0","",""
"173035","Jo2274","Harivaara E","62.999628","29.746091","4","","0","","276","","","0","",""
"173036","Jo2275","Harivaara P","63.000297","29.744988","4","","0","","276","","","0","",""
"173435","","Kuusjärvi L","62.70111819543599","28.924184940398234","4","","0","","309","","","0","",""
"173436","","Kuusjärvi I","62.700987748330604","28.926679394781377","4","","0","","309","","","0","",""
"173437","","Pellinmäki L","62.70075776681465","28.93790980392775","4","","0","","309","","","0","",""
"173438","","Pellinmäki I","62.70077498908355","28.940908513607138","4","","0","","309","","","0","",""
"173439","","Ulla th L","62.70083157646894","28.957983537616133","4","","0","","309","","","0","",""
"173440","","Ulla th I","62.70069133796727","28.960102482737533","4","","0","","309","","","0","",""
"173450","","Sysmäjärvi I","62.703241","29.06444","4","","0","","309","","","0","",""
"173451","","Lappala (Outokumpu) L","62.698287","29.075257","4","","0","","309","","","0","",""
"173452","","Lappala (Outokumpu) I","62.697779","29.075593","4","","0","","309","","","0","",""
"173453","","Kankaanpää L (Outokumpu)","62.693126","29.078706","4","","0","","309","","","0","",""
"173454","","Kankaanpää I (Outokumpu)","62.692332","29.079589","4","","0","","309","","","0","",""
"173455","Jo5471","Jakaranlahti L","62.684362","29.103473","4","","0","","426","","","0","",""
"173456","Jo5470","Jakaranlahti I","62.683766","29.105482","4","","0","","426","","","0","",""
"173457","Jo5469","Viinirannantie th (vt9) L","62.678644","29.116468","4","","0","","426","","","0","",""
"173458","Jo5468","Viinirannantie th (vt9) I","62.677894","29.117939","4","","0","","426","","","0","",""
"173459","Jo5467","Aholampi L","62.67434","29.122587","4","","0","","426","","","0","",""
"173460","Jo5466","Aholampi I","62.673659","29.123125","4","","0","","426","","","0","",""
"173461","Jo5465","Ahonkylä L","62.667021","29.135655","4","","0","","426","","","0","",""
"173462","Jo5464","Ahonkylä I","62.666521","29.137279","4","","0","","426","","","0","",""
"173463","Jo5463","Leppilampi th L","62.663373","29.147576","4","","0","","426","","","0","",""
"173464","Jo5462","Leppilampi th I","62.662772","29.149309","4","","0","","426","","","0","",""
"173465","Jo5461","Viiniranta th L","62.659874","29.156186","3","","0","","426","","","0","",""
"173466","Jo5460","Viiniranta th I","62.659132","29.157675","3","","0","","426","","","0","",""
"173467","Jo5459","Ristonkangas th L","62.646806","29.18127","3","","0","","426","","","0","",""
"173468","","Kangasranta I","62.646515","29.182673","3","","0","","426","","","0","",""
"173469","Jo5457","Viinijärvi th L","62.637954","29.224008","3","","0","","426","","","0","",""
"173470","Jo5456","Viinijärvi th I","62.637771","29.225341","3","","0","","426","","","0","",""
"173471","Jo5455","Siikakoski th L","62.636527","29.237519","3","","0","","426","","","0","",""
"173472","Jo5454","Siikakoski th I","62.636339","29.239143","3","","0","","426","","","0","",""
"173473","Jo5453","Simola L","62.63546","29.25084","3","","0","","426","","","0","",""
"173474","Jo5452","Simola I","62.635464","29.251719","3","","0","","426","","","0","",""
"173475","","Kontkala th L","62.635909","29.273641","3","","0","","426","","","0","",""
"173476","","Alanko L","62.635557","29.28809","3","","0","","426","","","0","",""
"173477","","Alanko I","62.63548","29.289508","3","","0","","426","","","0","",""
"173478","Jo5445","Varkaudentie th (vt9) L","62.634573","29.308107","3","","0","","426","","","0","",""
"173479","Jo5444","Varkaudentie th (vt9) I","62.634481","29.309875","3","","0","","426","","","0","",""
"173480","Jo5443","Ratasuo L","62.633886","29.321416","3","","0","","426","","","0","",""
"173481","Jo5442","Ratasuo I","62.633822","29.322621","3","","0","","426","","","0","",""
"173482","Jo5441","Syvälampi (Käsämä) L","62.633161","29.340165","3","","0","","426","","","0","",""
"173483","Jo5440","Syvälampi (Käsämä) I","62.63318","29.341766","3","","0","","426","","","0","",""
"173484","Jo5426","Käsämä th L","62.63302","29.357671","2","","0","","426","","","0","",""
"173485","","Käsämä th I","62.63302209","29.35926728","2","","0","","426","","","0","",""
"173486","Jo5423","Käsämä Kaprakka th L","62.633172","29.372607","2","","0","","426","","","0","",""
"173487","","Käsämä Kaprakka th I","62.63326585","29.37520213","2","","0","","426","","","0","",""
"173488","","Hopearannantie L","62.63371727","29.3841115","2","","0","","426","","","0","",""
"173489","","Hopearannantie I","62.63374807","29.38564706","2","","0","","426","","","0","",""
"173490","","Kuorinka L","62.62566866","29.42871311","2","","0","","426","","","0","",""
"173491","","Kuorinka I","62.62534703","29.43081927","2","","0","","426","","","0","",""
"173492","","Itärannantie (Liperi) L","62.62274764","29.44561436","2","","0","","426","","","0","",""
"173493","","Itärannantie (Liperi) I","62.62245095","29.44673052","2","","0","","426","","","0","",""
"173494","","Honkavaarantie L","62.62054233","29.4633564","2","","0","","426","","","0","",""
"173495","","Honkavaarantie I","62.6204926","29.46820109","2","","0","","426","","","0","",""
"173496","","Pihatie L","62.62079577","29.48054281","2","","0","","426","","","0","",""
"173497","","Pihatie I","62.62086744","29.48217598","2","","0","","426","","","0","",""
"173498","","Matkalampi L","62.61986809","29.49971194","2","","0","","426","","","0","",""
"173502","","Siilainen L","62.61836475215888","29.729402190537932","1","","0","","167","","","0","",""
"173762","","Onkamo th Lapinahontie L","62.310209","30.125796","4","","0","","848","","","0","",""
"173763","","Onkamo th Lapinahontie I","62.309768","30.127044","4","","0","","848","","","0","",""
"173764","","Lavatie L","62.309065","30.132318","4","","0","","848","","","0","",""
"173765","","Lavatie I","62.308899","30.133691","4","","0","","848","","","0","",""
"173766","","Kangaslampi (Onkamo) L","62.306727","30.150683","4","","0","","848","","","0","",""
"173767","","Kangaslampi (Onkamo) I","62.306473","30.151988","4","","0","","848","","","0","",""
"173768","","Onkamo L","62.303927","30.1628","4","","0","","848","","","0","",""
"173769","","Onkamo I","62.303671","30.163777","4","","0","","848","","","0","",""
"173770","","Murtoi th L","62.28723","30.200245","4","","0","","848","","","0","",""
"173771","","Murtoi th I","62.286066","30.20124","4","","0","","848","","","0","",""
"173772","","Perätie L","62.267776","30.23371","4","","0","","848","","","0","",""
"173773","","Perätie I","62.266888","30.234424","4","","0","","848","","","0","",""
"173774","","Purtorinteentie L","62.263528","30.239422","4","","0","","848","","","0","",""
"173775","","Purtorinteentie I","62.26306","30.240606","4","","0","","848","","","0","",""
"173776","","Riitanahontie L","62.258457","30.265262","4","","0","","848","","","0","",""
"173777","","Riitanahontie I","62.258286","30.26719","4","","0","","848","","","0","",""
"173778","","Hannula L","62.251679","30.283682","4","","0","","848","","","0","",""
"173779","","Hannula I","62.250955","30.284682","4","","0","","848","","","0","",""
"173780","","Purtovaara L","62.242978","30.296739","4","","0","","848","","","0","",""
"173781","","Purtovaara I","62.242386","30.298196","4","","0","","848","","","0","",""
"173782","","Suontaka I","62.237882","30.304734","4","","0","","848","","","0","",""
"173783","","Suontaka L","62.237174","30.305754","4","","0","","848","","","0","",""
"173784","","Likaistenristeys L","62.229692","30.319222","4","","0","","848","","","0","",""
"173785","","Likaistenristeys I","62.228991","30.322611","4","","0","","848","","","0","",""
"173884","","Paihola th E","62.71709704","29.8984251","2","","0","","276","","","0","",""
"173885","","Paihola th P","62.71728010013293","29.90132337671495","2","","0","","276","","","0","",""
"173886","","Uilonpuro E","62.71938791","29.92755855","2","","0","","276","","","0","",""
"173887","","Uilonpuro P","62.71973595","29.92939675","2","","0","","276","","","0","",""
"173888","","Uilo E","62.72427537","29.9442729","2","","0","","276","","","0","",""
"173889","","Uilo P","62.72494094","29.94617717","2","","0","","276","","","0","",""
"173890","Jo2730","Jakokoskentie (Kontiolahti), E","62.730304900462876","29.96159386990972","2","","0","","276","","","0","",""
"173891","","Jakokoskentie (Kontiolahti) P","62.73052574","29.9622324","2","","0","","276","","","0","",""
"173892","","Jakokoski E","62.73770725","29.98236596","2","","0","","276","","","0","",""
"173893","","Jakokoski P","62.73825225","29.98365846","2","","0","","276","","","0","",""
"173894","","Mönni th (kt. 73) E","62.74071594","29.98856659","2","","0","","276","","","0","",""
"173895","Jo2735","Mönni th (kt. 73) P","62.741253","29.989534","2","","0","","276","","","0","",""
"173896","Jo2736","Kuusisto E","62.760569","30.034234","2","","0","","276","","","0","",""
"173897","Jo2737","Kuusisto P","62.760978","30.034825","2","","0","","276","","","0","",""
"173898","Jo2738","Kuusoja E","62.77133","30.049182","3","","0","","276","","","0","",""
"173899","","Kuusoja P","62.772087","30.050711","3","","0","","167","","","0","",""
"173900","","Takavaarantie E","62.775655","30.059335","3","","0","","167","","","0","",""
"173901","","Takavaarantie P","62.776418","30.061415","3","","0","","167","","","0","",""
"173902","","Novikanrinne E","62.778022","30.065699","3","","0","","167","","","0","",""
"173903","","Novikanrinne P","62.778565","30.067168","3","","0","","167","","","0","",""
"173904","","Novikka P","62.784373","30.077638","3","","0","","167","","","0","",""
"173905","","Novikka E","62.784811","30.078115","3","","0","","167","","","0","",""
"173906","","Yrjöntie E","62.798207","30.105399","3","","0","","167","","","0","",""
"173907","","Yrjöntie P","62.798871","30.108687","3","","0","","167","","","0","",""
"173908","","Louhioja E","62.800049","30.113109","3","","0","","167","","","0","",""
"173909","","Louhioja P","62.801568","30.117529","3","","0","","167","","","0","",""
"173910","","Heikuranvaarantie E","62.805466","30.130111","3","","0","","167","","","0","",""
"173911","","Heikuranvaarantie P","62.806013","30.133369","3","","0","","167","","","0","",""
"173912","","Kaltimo L","62.807225","30.142273","3","","0","","167","","","0","",""
"173913","","Kaltimo I","62.807532","30.144602","3","","0","","167","","","0","",""
"173914","","Eno th E","62.808104","30.148746","3","","0","","167","","","0","",""
"173915","","Eno th P","62.808488","30.151634","3","","0","","167","","","0","",""
"173916","","Karhunsalon oikotie th E","62.817892","30.185632","4","","0","","167","","","0","",""
"173917","","Karhunsalon oikotie th P","62.818299","30.186285","4","","0","","167","","","0","",""
"173918","","Muuraisniemi E","62.827493","30.195237","4","","0","","167","","","0","",""
"173919","","Muuraisniemi P","62.828124","30.195541","4","","0","","167","","","0","",""
"173920","","Pajarinniemi E","62.842581","30.193849","4","","0","","167","","","0","",""
"173921","","Pajarinniemi P","62.843169","30.193658","4","","0","","167","","","0","",""
"173922","","Hallavaarantie E","62.861774","30.198021","4","","0","","167","","","0","",""
"173923","","Hallavaarantie P","62.862863","30.198749","4","","0","","167","","","0","",""
"173924","","Paukkaja E","62.865169","30.200062","4","","0","","167","","","0","",""
"173925","","Paukkaja P","62.866013","30.200469","4","","0","","167","","","0","",""
"173926","","Venäjänjärventie E","62.871789","30.202082","4","","0","","167","","","0","",""
"173927","","Venäjänjärventie P","62.873017","30.202176","4","","0","","167","","","0","",""
"173928","","Rahkeenniemi E","62.879354","30.201254","4","","0","","167","","","0","",""
"173929","","Rahkeenniemi P","62.880494","30.200867","4","","0","","167","","","0","",""
"173930","","Rahkee E","62.895863","30.2002","4","","0","","167","","","0","",""
"173931","","Rahkee P","62.896885","30.201848","4","","0","","167","","","0","",""
"173932","","Laiskanniemi","62.904731","30.219446","4","","0","","167","","","0","",""
"173933","","Tuuliharjuntie","62.909919","30.239263","4","","0","","167","","","0","",""
"173934","","Uimaharjun asema E","62.910848","30.241828","4","","0","","167","","","0","",""
"173935","","Uimaharjun asema P","62.911658","30.24375","4","","0","","167","","","0","",""
"173936","","Uimaharju Honkajoentie P","62.915444","30.250612","4","","0","","167","","","0","",""
"173937","","Sahankangas E","62.917425","30.249216","4","","0","","167","","","0","",""
"173938","","Sahankangas P","62.918059","30.248616","4","","0","","167","","","0","",""
"173939","","Honkavaarantie (Uimaharju) E","62.925102","30.238478","4","","0","","167","","","0","",""
"173940","","Honkavaarantie (Uimaharju) P","62.925966","30.237233","4","","0","","167","","","0","",""
"173941","","Honkavaara (Uimaharju) E","62.935664","30.229964","4","","0","","167","","","0","",""
"173942","","Honkavaara (Uimaharju) P","62.936492","30.229504","4","","0","","167","","","0","",""
"173943","","Ukkolanraitti E","62.944562","30.218008","4","","0","","167","","","0","",""
"173944","","Ukkolanraitti P","62.945381","30.215987","4","","0","","167","","","0","",""
"173945","","Honkaniemi E","62.952158","30.203573","4","","0","","167","","","0","",""
"173946","","Honkaniemi P","62.952765","30.202574","4","","0","","167","","","0","",""
"173947","","Ukkola (Lieksantie) P","62.958322","30.198368","4","","0","","167","","","0","",""
"173948","","Myllypuro E","62.96708","30.200411","5","","0","","167","","","0","",""
"173949","","Myllypuro P","62.967713","30.200599","5","","0","","167","","","0","",""
"173950","","Petrontie E","62.980503","30.203895","5","","0","","167","","","0","",""
"173951","","Petrontie P","62.981231","30.203896","5","","0","","167","","","0","",""
"173952","","Purola (Lieksantie) E","62.992944","30.197594","5","","0","","167","","","0","",""
"173953","","Purola (Lieksantie) P","62.993424","30.197035","5","","0","","167","","","0","",""
"173954","","Kalettoma E","63.004779","30.178317","5","","0","","167","","","0","",""
"173955","","Kalettoma P","63.0053","30.177523","5","","0","","167","","","0","",""
"173956","","Ihannon th E","63.011208","30.170062","5","","0","","167","","","0","",""
"173957","","Ihannon th P","63.011973","30.169216","5","","0","","167","","","0","",""
"173958","","Konnunlampi E","63.028517","30.147634","5","","0","","167","","","0","",""
"173959","","Konnunlampi P","63.02928","30.146431","5","","0","","167","","","0","",""
"173960","","Kyyrönlampi E","63.043434","30.125933","5","","0","","422","","","0","",""
"173961","","Kyyrönlampi P","63.044593","30.125543","5","","0","","422","","","0","",""
"173962","","Vorna E","63.048908","30.126203","5","","0","","422","","","0","",""
"173963","","Vorna P","63.049284","30.126244","5","","0","","422","","","0","",""
"173964","","Kelvä th E","63.071162","30.130118","5","","0","","422","","","0","",""
"173965","","Kelvä th P","63.072195","30.130526","5","","0","","422","","","0","",""
"173966","","Majalampi E","63.133476","30.128973","6","","0","","422","","","0","",""
"173967","","Majalampi P","63.134223","30.129311","6","","0","","422","","","0","",""
"173968","","Vehkalampi th E","63.15357","30.135112","6","","0","","422","","","0","",""
"173969","","Vehkalampi th P","63.15428","30.135547","6","","0","","422","","","0","",""
"173970","","Kalliokoski E","63.166632","30.145269","6","","0","","422","","","0","",""
"173971","","Kalliokoski P","63.167595","30.145989","6","","0","","422","","","0","",""
"173972","","Koiravaara E","63.20644","30.139803","6","","0","","422","","","0","",""
"173973","","Koiravaara P","63.207522","30.139622","6","","0","","422","","","0","",""
"173974","","Väärälampi E","63.23965","30.133687","6","","0","","422","","","0","",""
"173975","","Väärälampi P","63.240601","30.134149","6","","0","","422","","","0","",""
"173976","","Märäjälahti (Lieksa) E","63.255037","30.129636","7","","0","","422","","","0","",""
"173977","","Märäjälahti (Lieksa) P","63.25609","30.128334","7","","0","","422","","","0","",""
"173978","","Tuomikoski E","63.266683","30.112691","7","","0","","422","","","0","",""
"173979","","Tuomikoski P","63.267604","30.110796","7","","0","","422","","","0","",""
"173980","","Lamminkylä th E","63.293255","30.071707","7","","0","","422","","","0","",""
"173981","","Lamminkylä th P","63.293906","30.070658","7","","0","","422","","","0","",""
"173982","","Tuira E","63.297125","30.065512","7","","0","","422","","","0","",""
"173983","","Tuira P","63.297767","30.064462","7","","0","","422","","","0","",""
"173984","","Rauhala (Lieksa) E","63.301515","30.056834","7","","0","","422","","","0","",""
"173986","","Timitra th E","63.310165","30.036682","7","","0","","422","","","0","",""
"173987","","Timitra th P","63.31022","30.036628","7","","0","","422","","","0","",""
"173988","","Brahea E","63.314595","30.030737","7","","0","","422","","","0","",""
"173989","","Brahea P","63.315092","30.029292","7","","0","","422","","","0","",""
"174067","","Iiksenvaarantie L","62.596898021793464","29.83735260053599","1","","0","","167","","","0","",""
"174068","","Iiksenvaarantie I","62.59719314692828","29.839368052253086","1","","0","","167","","","0","",""
"174069","","Iiksenjoentie L","62.59946206","29.86807246","1","","0","","167","","","0","",""
"174070","","Iiksenjoentie I","62.59955038","29.86941376","1","","0","","167","","","0","",""
"174071","","Iiksenniitty L","62.60465956","29.92446205","2","","0","","167","","","0","",""
"174072","","Iiksenniitty I","62.60483046","29.92616719","2","","0","","167","","","0","",""
"174073","","Lähdepohjantie","62.6070842","29.95550707","2","","0","","276","","","0","",""
"174074","","Mustalampi","62.60735884","29.96061306","2","","0","","276","","","0","",""
"174075","","Särkivaara th L","62.60789314","29.98176263","2","","0","","276","","","0","",""
"174076","","Särkivaara th I","62.60780097","29.98353794","2","","0","","276","","","0","",""
"174077","","Jukajoentie L","62.60723049","29.98932691","2","","0","","276","","","0","",""
"174078","","Jukajoentie I","62.60685498","29.99178002","2","","0","","276","","","0","",""
"174079","","Kypäräntie L","62.60050357","30.03040205","2","","0","","276","","","0","",""
"174080","","Kypäräntie I","62.60034251","30.03200818","2","","0","","276","","","0","",""
"174081","","Huovila L","62.60048375","30.05990037","2","","0","","276","","","0","",""
"174082","","Huovila I","62.60045214","30.06096534","2","","0","","276","","","0","",""
"174083","","Tervasuo th L","62.59843135","30.08496239","2","","0","","276","","","0","",""
"174084","","Tervasuo th I","62.59826304","30.08685333","2","","0","","276","","","0","",""
"174085","","Alavi I","62.59554749","30.10879194","2","","0","","276","","","0","",""
"174086","","Alavi L","62.59528835","30.10992607","2","","0","","276","","","0","",""
"174087","","Viherkumpu L","62.593652","30.115733","2","","0","","167","","","0","",""
"174088","","Viherkumpu I","62.592884","30.117933","2","","0","","167","","","0","",""
"174089","","Muovilaaksontie L","62.583857","30.134345","2","","0","","167","","","0","",""
"174090","","Muovilaaksontie I","62.582758","30.1353","2","","0","","167","","","0","",""
"174091","","Heinävaara (Kiihtelys) L","62.559407","30.172436","2","","0","","167","","","0","",""
"174092","","Heinävaara (Kiihtelys) I","62.558992","30.175662","2","","0","","167","","","0","",""
"174093","","Ruukkilahti L","62.557305","30.190977","2","","0","","167","","","0","",""
"174094","","Ruukkilahti I","62.557179","30.193319","2","","0","","167","","","0","",""
"174095","","Kivilampi (Kiihtelys) L","62.563197","30.228173","3","","0","","167","","","0","",""
"174096","Jo1491","Kivilampi (Kiihtelys) I","62.5635","30.229452","3","","0","","167","","","0","",""
"174097","","Koljola L","62.564968","30.245188","3","","0","","167","","","0","",""
"174098","","Koljola I","62.564906","30.24672","3","","0","","167","","","0","",""
"174099","","Puksunvaara L","62.564536","30.265683","3","","0","","167","","","0","",""
"174100","","Puksunvaara I","62.565064","30.270765","3","","0","","167","","","0","",""
"174101","","Keskijärvi L","62.567604","30.283137","3","","0","","167","","","0","",""
"174102","","Keskijärvi I","62.56827","30.284983","3","","0","","167","","","0","",""
"174103","","Mäkrä th L","62.569554","30.287695","3","","0","","167","","","0","",""
"174104","","Mäkrä th I","62.57021","30.288858","3","","0","","167","","","0","",""
"174105","","Matikkaluoto I","62.573765","30.293167","3","","0","","167","","","0","",""
"174106","","Matikkaluoto L","62.57417","30.293504","3","","0","","167","","","0","",""
"174107","","Mustikkamäki (Kiihtelys) L","62.579943","30.299403","3","","0","","167","","","0","",""
"174108","","Mustikkamäki (Joensuu) I","62.580392","30.300174","3","","0","","167","","","0","",""
"174109","","Onkivaara L","62.584308","30.312767","3","","0","","167","","","0","",""
"174110","","Onkivaara I","62.584467","30.313993","3","","0","","167","","","0","",""
"174111","","Löytöjärvi I","62.584823","30.325509","3","","0","","167","","","0","",""
"174112","","Löytöjärvi L","62.584827","30.327224","3","","0","","167","","","0","",""
"174113","","Litovaara L","62.586289","30.344283","3","","0","","167","","","0","",""
"174114","","Litovaara I","62.586341","30.346588","3","","0","","167","","","0","",""
"174115","","Hiidenhuippu L","62.582226","30.368317","3","","0","","167","","","0","",""
"174116","","Hiidenhuippu I","62.581477","30.369927","3","","0","","167","","","0","",""
"174117","","Kuikas E","62.576457","30.393592","3","","0","","167","","","0","",""
"174118","","Kuikas I","62.576452","30.394566","3","","0","","167","","","0","",""
"174119","","Autioniemi L","62.576618","30.401403","3","","0","","167","","","0","",""
"174120","","Autioniemi I","62.576739","30.404534","3","","0","","167","","","0","",""
"174121","","Tammikangas I","62.569371","30.455809","4","","0","","167","","","0","",""
"174122","","Tammikangas L","62.569194","30.457152","4","","0","","167","","","0","",""
"174123","","Tervasärkkä L","62.566207","30.47143","4","","0","","167","","","0","",""
"174124","","Tervasärkkä I","62.565731","30.472874","4","","0","","167","","","0","",""
"174125","","Jokiharjuntie L","62.55463","30.511877","4","","0","","167","","","0","",""
"174126","","Jokiharjuntie I","62.554639","30.513299","4","","0","","167","","","0","",""
"174127","","Kovero th L","62.55553","30.524306","4","","0","","167","","","0","",""
"174128","","Kovero th I","62.555704","30.525592","4","","0","","167","","","0","",""
"174129","","Metonlouhi L","62.556244","30.529472","4","","0","","167","","","0","",""
"174130","","Metonlouhi I","62.556548","30.532039","4","","0","","167","","","0","",""
"174131","","Hevoskumpu I","62.558329","30.547204","4","","0","","167","","","0","",""
"174132","","Hevoskumpu L","62.558494","30.548509","4","","0","","167","","","0","",""
"174133","","Sorronsuu L","62.562753","30.580194","4","","0","","167","","","0","",""
"174134","","Sorronsuu I","62.563044","30.581826","4","","0","","167","","","0","",""
"174135","","Mämmivaara L","62.565661","30.597819","4","","0","","167","","","0","",""
"174136","","Mämmivaara I","62.565779","30.599197","4","","0","","167","","","0","",""
"174137","","Heinäaho (Tuupovaara) I","62.566826","30.617106","4","","0","","167","","","0","",""
"174138","","Heinäaho (Tuupovaara) L","62.566944","30.618795","4","","0","","167","","","0","",""
"174139","","Piippukivi L","62.56885","30.643667","4","","0","","167","","","0","",""
"174140","","Piippukivi I","62.568969","30.644598","4","","0","","167","","","0","",""
"174141","","Herajärvi th L","62.57034","30.653005","5","","0","","167","","","0","",""
"174142","","Herajärvi th I","62.570723","30.654845","5","","0","","167","","","0","",""
"174143","","Suoperä L","62.573514","30.665279","5","","0","","167","","","0","",""
"174144","","Suoperä I","62.573805","30.666192","5","","0","","167","","","0","",""
"174145","","Taipaleenrannantie I","62.575855","30.671647","5","","0","","167","","","0","",""
"174146","","Taipaleenrannantie L","62.576219","30.672491","5","","0","","167","","","0","",""
"174147","","Saarilampi I","62.580558","30.681757","5","","0","","167","","","0","",""
"174148","","Saarilampi L","62.580804","30.682313","5","","0","","167","","","0","",""
"174149","","Onkimäki (Ilomantsintie) L","62.584728","30.690946","5","","0","","167","","","0","",""
"174150","","Onkimäki (Ilomantsintie) I","62.585064","30.691845","5","","0","","167","","","0","",""
"174151","","Häntäpää L","62.586955","30.698162","5","","0","","167","","","0","",""
"174152","","Häntäpää I","62.587212","30.699324","5","","0","","167","","","0","",""
"174153","","Marjovaara th L","62.590243","30.713113","5","","0","","146","","","0","",""
"174154","","Marjovaara th I","62.590708","30.715237","5","","0","","146","","","0","",""
"174155","","Jerusalemi th L","62.593768","30.740692","5","","0","","146","","","0","",""
"174156","","Jerusalemi th I","62.59388","30.741856","5","","0","","146","","","0","",""
"174157","","Kauniinjärvi L","62.60662","30.800319","5","","0","","146","","","0","",""
"174158","","Kauniinjärvi I","62.607157","30.801734","5","","0","","146","","","0","",""
"174159","","Kolmikanta th L","62.611624","30.813601","5","","0","","146","","","0","",""
"174160","","Kolmikanta th I","62.612234","30.815299","5","","0","","146","","","0","",""
"174161","","Issakka th L","62.616959","30.8282","5","","0","","146","","","0","",""
"174162","","Issakka th I","62.617484","30.830043","5","","0","","146","","","0","",""
"174163","","Maukkula L","62.624202","30.871019","5","","0","","146","","","0","",""
"174164","","Maukkula I","62.624363","30.872992","5","","0","","146","","","0","",""
"174165","","Vepsänmäki L","62.647257","30.932221","6","","0","","146","","","0","",""
"174166","","Vepsänmäki I","62.647993","30.933197","6","","0","","146","","","0","",""
"174167","","Parppeinvaara L","62.654018","30.935971","6","","0","","146","","","0","",""
"174168","","Parppeinvaara I","62.654782","30.935349","6","","0","","146","","","0","",""
"174169","","Sissipolku E","62.657631","30.933109","6","","0","","146","","","0","",""
"174170","","Sissipolku P","62.658406","30.933056","6","","0","","146","","","0","",""
"174171","","Pogostan yläkoulu E","62.661778","30.935223","6","","0","","146","","","0","",""
"174172","","Pogostan yläkoulu P","62.662693","30.935618","6","","0","","146","","","0","",""
"174173","","Ylätie P","62.666158","30.936724","6","","0","","146","","","0","","3"
"174174","","Ylätie E","62.666184","30.936747","6","","0","","146","","","0","",""
"174866","","Liperin lava I","62.53417784","29.39599631","2","","0","","426","","","0","",""
"174867","","Liperin lava L","62.53464048","29.39761645","2","","0","","426","","","0","",""
"174868","","Kuusikkola L","62.53593373","29.40205123","2","","0","","426","","","0","",""
"174869","","Kuusikkola I","62.53637585","29.40357502","2","","0","","426","","","0","",""
"174870","","Riihilahti (Liperi) L","62.54012487","29.41646599","2","","0","","426","","","0","",""
"174871","","Riihilahti (Liperi) I","62.54086825","29.41901587","2","","0","","426","","","0","",""
"174872","","Niva (Liperi) L","62.54397584","29.42966629","2","","0","","426","","","0","",""
"174873","","Niva (Liperi) I","62.54448396","29.43143464","2","","0","","426","","","0","",""
"174874","","Kuuppelo L","62.55063159","29.44393554","2","","0","","426","","","0","",""
"174875","","Kuuppelo I","62.55119351","29.44474005","2","","0","","426","","","0","",""
"174876","","Kolmikanta (Liperi) L","62.5577339","29.45416841","2","","0","","426","","","0","",""
"174877","","Kolmikanta (Liperi) I","62.55846904","29.45525391","2","","0","","426","","","0","",""
"174878","","Puromäki th L","62.56663849","29.4682364","2","","0","","426","","","0","",""
"174879","","Puromäki th I","62.56725338","29.46926067","2","","0","","426","","","0","",""
"174880","","Sormulansalo L","62.57191763","29.47692783","2","","0","","426","","","0","",""
"174881","","Sormulansalo I","62.57247398","29.47783541","2","","0","","426","","","0","",""
"174882","","Salokylä L","62.57923838","29.48615838","2","","0","","426","","","0","",""
"174883","","Salokylä I","62.57983563","29.48700484","2","","0","","426","","","0","",""
"174884","","Honkavaara (Liperi) L","62.58454798","29.49558755","2","","0","","426","","","0","",""
"174885","","Honkavaara (Liperi) I","62.58513485","29.49657437","2","","0","","426","","","0","",""
"174886","","Hyttilä (Liperi) I","62.5917428","29.50643973","2","","0","","426","","","0","",""
"174887","","Lihavaisenmutka L","62.59371708","29.51127849","2","","0","","426","","","0","",""
"174888","","Lihavaisenmutka I","62.59417013","29.51247578","2","","0","","426","","","0","",""
"174889","","Susiaho L","62.5984586","29.51973926","2","","0","","426","","","0","",""
"174890","","Susiaho I","62.59903396","29.52053567","2","","0","","426","","","0","",""
"174891","","Multimäki (Liperi) L","62.60126172","29.52378482","2","","0","","426","","","0","",""
"174892","","Multimäki (Liperi) I","62.60222445","29.52532345","2","","0","","426","","","0","",""
"174893","","Honkapuro L","62.60760848","29.53511651","2","","0","","426","","","0","",""
"174894","","Honkapuro I","62.60808246","29.53603384","2","","0","","426","","","0","",""
"174895","","Honkalampi th","62.61085134","29.54134658","2","","0","","426","","","0","",""
"174896","","Puolivälintie L","62.61164828","29.54286851","2","","0","","426","","","0","",""
"174897","","Puolivälintie I","62.61218259","29.54389421","2","","0","","426","","","0","",""
"174997","Jo5610","Kujokangas E","62.400401","29.576382","3","","0","","426","","","0","",""
"174998","Jo5611","Kujokangas P","62.400867","29.576925","3","","0","","426","","","0","",""
"174999","Jo5612","Miitsu E","62.411406","29.588792","3","","0","","426","","","0","",""
"175000","Jo5613","Miitsu P","62.41189","29.589357","3","","0","","426","","","0","",""
"175001","Jo5614","Tutjunniemi E","62.415845","29.593495","3","","0","","426","","","0","",""
"175002","Jo5615","Tutjunniemi P","62.416405","29.593834","3","","0","","426","","","0","",""
"175003","Jo5616","Vuoritie E","62.422623","29.594159","3","","0","","426","","","0","",""
"175004","Jo5617","Vuoritie P","62.42332","29.593852","3","","0","","426","","","0","",""
"175005","Jo5618","Rauvanlahti E","62.429177","29.587984","3","","0","","426","","","0","",""
"175006","Jo5619","Rauvanlahti P","62.430169","29.586791","3","","0","","426","","","0","",""
"175007","Jo5620","Luotoperä E","62.433743","29.582991","3","","0","","426","","","0","",""
"175008","Jo5621","Luotoperä P","62.434483","29.58228","3","","0","","426","","","0","",""
"175009","Jo5622","Riitaperkko E","62.441252","29.57418","3","","0","","426","","","0","",""
"175010","Jo5623","Riitaperkko P","62.441713","29.573541","3","","0","","426","","","0","",""
"175011","Jo5624","Pitkäniemi (Tutjuntie) E","62.447969","29.567894","3","","0","","426","","","0","",""
"175012","Jo5625","Pitkäniemi (Tutjuntie) P","62.448431","29.567217","3","","0","","426","","","0","",""
"175013","Jo5626","Hautakangas E","62.451429","29.562878","3","","0","","426","","","0","",""
"175014","Jo5627","Hautakangas P","62.452049","29.561904","3","","0","","426","","","0","",""
"175015","Jo5628","Saareke E","62.459724","29.556762","3","","0","","426","","","0","",""
"175016","Jo5629","Saareke P","62.46035","29.556408","3","","0","","426","","","0","",""
"175017","Jo5630","Immola E","62.46418","29.553729","3","","0","","426","","","0","",""
"175018","Jo5632","Reponiementie E","62.47057","29.545117","3","","0","","426","","","0","",""
"175019","Jo5633","Reponiementie P","62.470965","29.544141","3","","0","","426","","","0","",""
"175020","Jo5634","Kievari E","62.47785","29.537935","3","","0","","426","","","0","",""
"175021","Jo5635","Kievari P","62.478305","29.537624","3","","0","","426","","","0","",""
"175022","Jo5640","Roukalahti E","62.4872","29.532963","3","","0","","426","","","0","",""
"175023","Jo5641","Roukalahti P","62.48802","29.531791","3","","0","","426","","","0","",""
"175024","Jo5642","Roukalahden koulutie E","62.491715","29.520182","3","","0","","426","","","0","",""
"175025","Jo5643","Roukalahden koulutie P","62.49199","29.519351","3","","0","","426","","","0","",""
"175026","Jo5644","Lotma E","62.500734","29.499579","3","","0","","426","","","0","",""
"175027","Jo5645","Lotma P","62.501007","29.498864","3","","0","","426","","","0","",""
"175028","Jo5646","Rajakangas (Liperi) E","62.505739","29.488343","3","","0","","426","","","0","",""
"175029","Jo5647","Rajakangas (Liperi) P","62.506298","29.487243","3","","0","","426","","","0","",""
"175030","Jo5648","Lamminniemi E","62.509062","29.47879","3","","0","","426","","","0","",""
"175031","Jo5649","Lamminniemi P","62.509267","29.477835","3","","0","","426","","","0","",""
"175032","Jo5650","Maisonvaarantie E","62.510876","29.462018","3","","0","","426","","","0","",""
"175033","Jo5651","Maisonvaarantie P","62.511017","29.461175","3","","0","","426","","","0","",""
"175034","Jo5654","Lamminniemen silta E","62.514436","29.445951","3","","0","","426","","","0","",""
"175035","Jo5655","Lamminniemen silta P","62.514935","29.444652","3","","0","","426","","","0","",""
"175036","Jo5657","Lehmonniementie P","62.517473","29.427876","3","","0","","426","","","0","",""
"175037","Jo5656","Lehmonniementie E","62.517718","29.426185","3","","0","","426","","","0","",""
"175038","Jo5658","Kylänsärkkä E","62.521536","29.414718","3","","0","","426","","","0","",""
"175039","Jo5659","Kylänsärkkä P","62.521794","29.413768","3","","0","","426","","","0","",""
"175040","Jo5670","Liperinsalo th E","62.522972","29.40535","2","","0","","426","","","0","",""
"175041","Jo5671","Liperinsalo th P","62.523451","29.403639","2","","0","","426","","","0","",""
"175042","Jo5672","Tsasounakuja E","62.525265","29.39947","2","","0","","426","","","0","",""
"175043","Jo5673","Tsasounakuja P","62.525825","29.398213","2","","0","","426","","","0","",""
"175044","Jo5674","Kirkkolahti E","62.528803","29.386867","2","","0","","426","","","0","",""
"175045","","Kirkkolahti P","62.52961426","29.38377346","2","","0","","426","","","0","",""
"175046","","Liperi Koulukuja E","62.533893","29.373847","2","","0","","426","","","0","",""
"175047","","Liperi Koulukuja P","62.53358024","29.37457378","2","","0","","426","","","0","",""
"175086","","Hammaslahti liikekeskus I","62.432819953759456","29.970060594180346","2","","0","","167","","","0","",""
"175090","","Ohvana th E","62.426428","29.94836","3","","0","","167","","","0","",""
"175091","","Metsästysmajantie P","62.423625","29.939442","3","","0","","167","","","0","",""
"175092","","Metsästysmajantie E","62.423389","29.938683","3","","0","","167","","","0","",""
"175093","","Lotokka th P","62.420423","29.92512","3","","0","","167","","","0","",""
"175094","","Lotokka th E","62.420108","29.923462","3","","0","","167","","","0","",""
"175095","","Rähäkkälänmäki E","62.418334","29.914242","3","","0","","167","","","0","",""
"175097","","Niva th P","62.417316","29.908758","3","","0","","167","","","0","",""
"175101","","Rinkunmäki E","62.403731","29.866467","3","","0","","167","","","0","",""
"175102","","Rinkunmäki P","62.403141","29.866372","3","","0","","167","","","0","",""
"175103","","Korteniementie P","62.395271","29.860722","3","","0","","167","","","0","",""
"175104","","Korteniementie E","62.394893","29.860318","3","","0","","167","","","0","",""
"175105","","Sammallahti (Rääkkyläntie) P","62.390059","29.854709","3","","0","","167","","","0","",""
"175106","","Sammallahti (Rääkkyläntie) E","62.389717","29.854309","3","","0","","167","","","0","",""
"175171","","Kiteentien kiertoliittymä P","62.102635","30.126253","5","","0","","260","","","0","",""
"175172","","Ilmarisentie L","62.10513","30.14066","5","","0","","260","","","0","",""
"175174","","Kytänniemi L","62.108565","30.149204","5","","0","","260","","","0","",""
"175175","","Kytänniemi I","62.109177","30.150725","5","","0","","260","","","0","",""
"175176","","Impivaarantie L","62.115586","30.163149","5","","0","","260","","","0","",""
"175177","","Impivaarantie I","62.116013","30.16375","5","","0","","260","","","0","",""
"175188","","Riikola th E","62.176816","30.249142","4","","0","","848","","","0","",""
"175189","","Riikola th P","62.177374","30.249875","4","","0","","848","","","0","",""
"175190","","Lassilanmäentie P","62.183735","30.260979","4","","0","","848","","","0","",""
"175191","","Lassilanmäentie E","62.184055","30.261878","4","","0","","848","","","0","",""
"175192","","Akkala th E","62.187383","30.276159","4","","0","","848","","","0","",""
"175193","","Akkala th P","62.187657","30.2779","4","","0","","848","","","0","",""
"175194","","Haarajärvi th E","62.2053","30.28143","4","","0","","848","","","0","",""
"175195","","Haarajärvi th P","62.206024","30.281566","4","","0","","848","","","0","",""
"175196","","Luosovaara E","62.210344","30.288482","4","","0","","848","","","0","",""
"175197","","Luosovaara P","62.210444","30.288781","4","","0","","848","","","0","",""
"175198","","Luosojoki E","62.222923","30.309584","4","","0","","848","","","0","",""
"175199","","Luosojoki P","62.223568","30.310425","4","","0","","848","","","0","",""
"175200","","Likaistenristeys E","62.228253","30.318159","4","","0","","848","","","0","",""
"175275","","Kiihtelysvaara koulu E","62.481773","30.260667","3","","0","","167","","","0","",""
"175276","","Kiihtelysvaara koulu P","62.48226","30.260216","3","","0","","167","","","0","",""
"175277","","Lippitie E","62.487425","30.25874","3","","0","","167","","","0","",""
"175278","","Lippitie P","62.48787","30.258536","3","","0","","167","","","0","",""
"175279","","Palo th E","62.491731","30.255908","3","","0","","167","","","0","",""
"175280","","Palo th P","62.492342","30.255159","3","","0","","167","","","0","",""
"175281","","Kiihtelys-Hammaslahti th E","62.491712","30.243631","3","","0","","167","","","0","",""
"175282","","Kiihtelys-Hammaslahti th P","62.492253","30.242","3","","0","","167","","","0","",""
"175283","","Viesimola P","62.492968","30.234405","3","","0","","167","","","0","",""
"175284","","Satulavaarantie th E","62.496411","30.227707","3","","0","","167","","","0","",""
"175285","","Satulavaarantie th P","62.49739","30.227366","3","","0","","167","","","0","",""
"175286","","Valkiarannantie E","62.506258","30.220727","3","","0","","167","","","0","",""
"175287","","Valkiarannantie P","62.506744","30.220274","3","","0","","167","","","0","",""
"175288","","Patsonlampi P","62.535819","30.195133","2","","0","","167","","","0","",""
"175289","","Patsonlampi E","62.536452","30.194559","2","","0","","167","","","0","",""
"175290","","Suvispää P","62.540664","30.192268","2","","0","","167","","","0","",""
"175291","","Suvispää E","62.541536","30.191836","2","","0","","167","","","0","",""
"175292","","Opottala E","62.547026","30.18789","2","","0","","167","","","0","",""
"175293","","Opottala P","62.547934","30.187054","2","","0","","167","","","0","",""
"175294","","Kastelammentie P","62.551401","30.185907","2","","0","","167","","","0","",""
"175295","","Kastelammentie E","62.551934","30.18538","2","","0","","167","","","0","",""
"175296","","Heinävaara Lv E","62.555565","30.180999","2","","0","","167","","","0","",""
"175297","","Heinävaara Lv P","62.556284","30.179772","2","","0","","167","","","0","",""
"175298","Jo1600","Heinävaara (Joensuu) E","62.558576","30.174975","2","","0","","167","","","0","",""
"175352","","Kankaalanmäki E","62.48917","30.614917","4","","0","","167","","","0","",""
"175353","","Kankaalanmäki P","62.489496","30.61482","4","","0","","167","","","0","",""
"175354","","Julunahontie E","62.504088","30.605161","4","","0","","167","","","0","",""
"175355","","Julunahontie P","62.504974","30.604607","4","","0","","167","","","0","",""
"175356","","Pirttijärven th E","62.515819","30.583733","4","","0","","167","","","0","",""
"175357","","Pirttijärven th P","62.516682","30.58267","4","","0","","167","","","0","",""
"175358","","Vilvasjoki E","62.521553","30.573182","4","","0","","167","","","0","",""
"175359","","Vilvasjoki P","62.522378","30.571823","4","","0","","167","","","0","",""
"175360","","Huosionvaara th E","62.540124","30.540463","4","","0","","167","","","0","",""
"175362","","Kovero th E","62.554914","30.525557","4","","0","","167","","","0","",""
"175413","","Polvijärventie - Kuopiontie","62.63299836","29.60367301","2","","0","","426","","","0","",""
"175414","","Välikangas (Liperi) I","62.63630785","29.59822318","2","","0","","426","","","0","",""
"175415","","Välikangas (Liperi) L","62.63685844","29.59728365","2","","0","","426","","","0","",""
"175416","Jo5553","Heinälammintie I","62.645961","29.587205","2","","0","","426","","","0","",""
"175417","Jo5554","Heinälammintie L","62.646814","29.586694","2","","0","","426","","","0","",""
"175418","Jo5555","Vaivio th I","62.6711","29.582738","2","","0","","426","","","0","",""
"175419","Jo5556","Vaivio th L","62.672087","29.582297","2","","0","","426","","","0","",""
"175420","Jo5560","Pieni-Polvijärventie I","62.681763","29.573331","2","","0","","426","","","0","",""
"175421","Jo5561","Pieni-Polvijärventie L","62.682237","29.572434","2","","0","","426","","","0","",""
"175422","Jo5562","Harila L","62.687952","29.564428","2","","0","","426","","","0","",""
"175423","Jo5563","Harila I","62.688504","29.564183","2","","0","","426","","","0","",""
"175424","Jo5564","Valkeisenmäki I","62.69635315723617","29.564016618385196","2","","0","","426","","","0","",""
"175425","Jo5565","Valkeisenmäki L","62.696911","29.564148","2","","0","","426","","","0","",""
"175426","","Viitalahti (Joensuuntie) I","62.719858","29.534949","2","","0","","607","","","0","",""
"175427","","Viitalahti (Joensuuntie) L","62.720381","29.534329","2","","0","","607","","","0","",""
"175428","","Luotolahti L","62.725985","29.492185","2","","0","","607","","","0","",""
"175429","","Luotolahti I","62.725926","29.490439","2","","0","","607","","","0","",""
"175430","","Pitkäsenlahti I","62.733403","29.465191","3","","0","","607","","","0","",""
"175431","","Pitkäsenlahti L","62.73411","29.46431","3","","0","","607","","","0","",""
"175432","","Sotkuma th I","62.738844","29.451431","3","","0","","607","","","0","",""
"175433","","Sotkuma th L","62.739438","29.450345","3","","0","","607","","","0","",""
"175434","","Pohjanperä L","62.750568","29.436207","3","","0","","607","","","0","",""
"175435","","Huosiolampi I","62.796366","29.38387","3","","0","","607","","","0","",""
"175436","","Huosiolampi L","62.797048","29.382846","3","","0","","607","","","0","",""
"175437","","Juttusuo I","62.805861","29.370432","3","","0","","607","","","0","",""
"175438","","Juttusuo L","62.806548","29.369074","3","","0","","607","","","0","",""
"175439","","Kumpusuo I","62.81655","29.355785","3","","0","","607","","","0","",""
"175440","","Kumpusuo L","62.817091","29.355161","3","","0","","607","","","0","",""
"175441","","Pajaniemi I","62.841787","29.341618","4","","0","","607","","","0","",""
"175442","","Pajaniemi L","62.84244","29.341237","4","","0","","607","","","0","",""
"175443","","Kylylahti I","62.848041","29.337557","4","","0","","607","","","0","",""
"175483","","Ulla P","62.7014737126913","28.960123940409346","4","","0","","309","","","0","",""
"175484","","Ullantie E","62.704061798551656","28.961588345111178","4","","0","","309","","","0","",""
"175486","","Ruutunkangas E","62.70771715794479","28.968519173207042","4","","0","","309","","","0","",""
"175487","","Ruutunkangas P","62.70790409803953","28.96956523472319","4","","0","","309","","","0","",""
"175488","","Keretintie (Outokumpu) E","62.714424172881266","28.987369738163267","4","","0","","309","","","0","",""
"175489","","Keretintie (Outokumpu) P","62.71458893800422","28.987943730892244","4","","0","","309","","","0","",""
"175490","","Karjalankatu E","62.718364436824615","29.000432517860155","4","","0","","309","","","0","",""
"175491","","Karjalankatu P","62.71866842622358","29.00224526936027","4","","0","","309","","","0","",""
"175492","","Kyntövaara th E","62.729423","29.030007","4","","0","","309","","","0","",""
"175493","","Kyntövaara th P","62.729898","29.031312","4","","0","","309","","","0","",""
"175528","","Kylylahti P","62.84879","29.338442","4","","0","","607","","","0","",""
"175833","","Pahvitehtaantie","62.806634","30.151828","3","","0","","167","","","0","",""
"175834","","Enon liikekeskus E","62.800877","30.154156","3","","0","","167","","","0","",""
"175835","","Enon liikekeskus P","62.799891","30.154855","3","","0","","167","","","0","",""
"176031","","Lamminkyläntie th E","63.304673","30.065376","7","","0","","422","","","0","",""
"176032","","Rauhalantie","63.302535","30.056184","7","","0","","422","","","0","",""
"177528","","Oskamontie E","62.712661","29.074701","4","","0","","309","http://309","","0","",""
"177529","","Oskamontie P","62.713357","29.07559","4","","0","","309","","","0","",""
"177530","","Mustajoki th E","62.72541","29.069295","4","","0","","309","","","0","",""
"177531","","Mustajoki th P","62.726139","29.068583","4","","0","","309","","","0","",""
"177532","","Hiekkapalstantie E","62.729746","29.063923","4","","0","","309","","","0","",""
"177533","","Hiekkapalstantie P","62.730329","29.062731","4","","0","","309","","","0","",""
"178093","","Haavanpää I","62.4764722100634","29.956523042803035","2","","0","","167","","","0","",""
"178094","","Haavanpää L","62.475722993887445","29.95494583513102","2","","0","","167","","","0","",""
"178095","","Aholantie (Joensuu) P","62.47188149","29.94962346","2","","0","","167","","","0","",""
"178096","","Aholantie (Joensuu) E","62.47098738","29.94947722","2","","0","","167","","","0","",""
"178097","","Pyöräkkö P","62.46558876","29.95533065","2","","0","","167","","","0","",""
"178098","","Pyöräkkö E","62.46466409","29.95665921","2","","0","","167","","","0","",""
"178099","","Tuulentie P","62.45928388","29.95820427","2","","0","","167","","","0","",""
"178100","","Tuulentie E","62.45886981","29.95802962","2","","0","","167","","","0","",""
"178101","","Sintso P","62.45549001","29.95759762","2","","0","","167","","","0","",""
"178102","","Sintso E","62.45452555","29.95782457","2","","0","","167","","","0","",""
"178103","","Parkkilantie","62.453142","29.95839","2","","0","","167","","","0","",""
"178104","","Hammaslahti kirkko P","62.449976","29.96004268","2","","0","","167","","","0","",""
"178105","","Hammaslahti kirkko E","62.44985452","29.96010914","2","","0","","167","","","0","",""
"178106","","Kuusenjuuri P","62.44714224","29.96205816","2","","0","","167","","","0","",""
"178107","","Kuusenjuuri E","62.44622403","29.96314492","2","","0","","167","","","0","",""
"178108","","Paavontie P","62.44257737","29.96884368","2","","0","","167","","","0","",""
"178109","","Paavontie E","62.44167587","29.96969461","2","","0","","167","","","0","",""
"178110","","Pakarilantie","62.43820027","29.96907239","2","","0","","167","","","0","",""
"178111","","Opintie P","62.43750623891711","29.968101762213173","2","","0","","167","","","0","",""
"178112","","Opintie E","62.43652843584604","29.967499419999996","2","","0","","167","","","0","",""
"178113","","Sammontie E","62.43462216","29.96885905","2","","0","","167","","","0","",""
"178114","","Sammontie P","62.43337572","29.96912721","2","","0","","167","","","0","",""
"178124","","Kiteentien kiertoliittymä I","62.101956","30.126087","5","","0","","260","","","0","",""
"178125","","Hovintie L","62.099384","30.132551","5","","0","","260","","","0","",""
"178126","","Hovintie I","62.099074","30.133937","5","","0","","260","","","0","",""
"178127","","Kauppatie (Kitee) I","62.097919","30.13932","5","","0","","260","","","0","",""
"178128","","Kauppatie (Kitee) L","62.097726","30.140297","5","","0","","260","","","0","",""
"178321","","Ukonniemi I","62.58257999","29.76349747","1","","0","","167","","","0","",""
"178322","","Vehkalahti I","62.580802","29.767633","1","","0","","167","","","0","",""
"178324","","Lonikinpuisto L","62.58581681","29.80207541","1","","0","","167","","","0","",""
"178325","","Lonikinpuisto I","62.58625648882715","29.8034878579674","1","","0","","167","","","0","",""
"178330","Jo5521","Käsämä kauppa P","62.63781047871476","29.354985685998425","2","","0","","426","","","0","","3"
"178331","","Käsämä kauppa E","62.63825745","29.35467121","2","","0","","426","","","0","",""
"178332","","Käsämä koulu  E","62.647847461908555","29.352819529558978","2","","0","","426","","","0","","3"
"178333","","Käsämä koulu  P","62.64826916803137","29.35293189322882","2","","0","","426","","","0","","3"
"178334","","Juuinlahti  E","62.66154892978661","29.351996068287104","2","","0","","426","","","0","","3"
"178335","","Juuinlahti  P","62.66181414676575","29.351742164020575","2","","0","","426","","","0","","3"
"178336","","Ahoniemi  E","62.66938818069497","29.35762662690638","2","","0","","426","","","0","","3"
"178337","","Ahoniemi  P","62.66975110373381","29.358068257457962","2","","0","","426","","","0","","3"
"178338","","Pörölä  E","62.68258650800893","29.37342914829625","2","","0","","426","","","0","","3"
"178339","","Pörölä  P","62.683062531431936","29.373637565390403","2","","0","","426","","","0","","3"
"178340","","Mantila  E","62.69162946548182","29.3828427893639","3","","0","","607","","","0","","3"
"178341","","Mantila  P","62.692202087494515","29.383188031826485","3","","0","","607","","","0","","3"
"178342","","Kultalampi  E","62.705209772174804","29.389387955975458","3","","0","","607","","","0","","3"
"178343","","Kultalampi  P","62.705496042245855","29.38959752457695","3","","0","","607","","","0","","3"
"178344","","Pöhönlahti  E","62.72057086062","29.397613757661603","3","","0","","607","","","0","","3"
"178345","","Pöhönlahti  P","62.72093215266104","29.398324433718717","3","","0","","607","","","0","","3"
"178346","","Lapinsaarentie (Polvijärvi)  E","62.72590094689529","29.410376321057715","3","","0","","607","","","0","","3"
"178347","","Lapinsaarentie (Polvijärvi)  P","62.726392098524094","29.411404745590477","3","","0","","607","","","0","","3"
"178350","","Koninranta L","62.738904","29.450046","3","","0","","607","","","0","",""
"178363","","Kontiolampi E","62.7269123","29.85268385","2","","0","","276","","","0","",""
"178364","","Kontiolampi P","62.72739738","29.85189113","2","","0","","276","","","0","",""
"178365","","Kontioniemi th E","62.73031004","29.84775323","2","","0","","276","","","0","",""
"178366","","Kontioniemi th P","62.73091168","29.84693422","2","","0","","276","","","0","",""
"178367","","Kontioniemenkoulu E","62.735455","29.838094","2","","0","","276","","","0","",""
"178368","","Kontioniemenkoulu P","62.73588204","29.83739888","2","","0","","276","","","0","",""
"178369","","Kontioniementie 28 E","62.73821428","29.83200621","2","","0","","276","","","0","",""
"178370","","Kontioniementie 28 P","62.73849459","29.83107796","2","","0","","276","","","0","",""
"178371","","Jääkärintie","62.73940052","29.82697146","2","","0","","276","","","0","",""
"178372","","Kontioniementie 34","62.7407897","29.82047618","2","","0","","276","","","0","",""
"178373","","Kontioniementie 40","62.74242606","29.81331856","2","","0","","276","","","0","",""
"178389","","Heinävaarantie th E","62.59660098","30.11243965","2","","0","","167","","","0","",""
"178390","","Heinävaarantie th P","62.59737942","30.1127125","2","","0","","167","","","0","",""
"178391","","Koivusaarentie E","62.60215063","30.11140595","2","","0","","167","","","0","",""
"178392","","Koivusaarentie P","62.60304116","30.11083345","2","","0","","167","","","0","",""
"178393","","Jakokoskentie (Joensuu) P","62.60752129","30.10934377","2","","0","","276","","","0","",""
"178394","","Jakokoskentie (Joensuu) E","62.60862152","30.10963831","2","","0","","276","","","0","",""
"178395","","Karhula E","62.6119295","30.112859","2","","0","","276","","","0","",""
"178396","","Karhula P","62.61245896","30.11373012","2","","0","","276","","","0","",""
"178397","","Notkolantie E","62.6155787","30.11985293","2","","0","","276","","","0","",""
"178398","","Notkolantie P","62.61589345","30.12067193","2","","0","","276","","","0","",""
"178399","","Selkie E","62.64899696","30.12632785","2","","0","","276","","","0","",""
"178400","","Selkie P","62.64970732881876","30.12504441235232","2","","0","","276","","","0","",""
"178403","","Paiholantie","62.71656051505264","29.901004326032787","2","","0","","276","","","0","",""
"178404","","Kuurna th (Kontiolahti) P","62.71294053243599","29.904297365794633","2","","0","","276","","","0","",""
"178405","","Kuurna th (Kontiolahti) E","62.71222226652379","29.90574596045109","2","","0","","276","","","0","",""
"178406","","Kokkopelto P","62.70981361062107","29.91161919579588","2","","0","","276","","","0","",""
"178407","","Kokkopelto E","62.70931781344542","29.912457890876567","2","","0","","276","","","0","",""
"178408","","Kirves P","62.70530866","29.915923","2","","0","","276","","","0","",""
"178409","","Kirves E","62.70485509","29.91627301","2","","0","","276","","","0","",""
"178410","","Ahokkala P","62.70114648","29.91837179","2","","0","","276","","","0","",""
"178411","","Ahokkala. E","62.70041509","29.91879311","2","","0","","276","","","0","",""
"178412","","Kostela P","62.69623894","29.92387359","2","","0","","276","","","0","",""
"178413","","Kostela E","62.69585189","29.92465252","2","","0","","276","","","0","",""
"178414","","Suoniemi P","62.69213636","29.93158409","2","","0","","276","","","0","",""
"178415","","Suoniemi E","62.6916359","29.93205408","2","","0","","276","","","0","",""
"178416","","Paiholan päiväkoti P","62.68811681","29.93126821","2","","0","","276","","","0","",""
"178417","","Paiholan päiväkoti E","62.68776622","29.93076422","2","","0","","276","","","0","",""
"178418","","Paihola ranta P","62.68552925","29.92764771","2","","0","","276","","","0","",""
"178419","","Paihola ranta E","62.6852399","29.92723927","2","","0","","276","","","0","",""
"178420","","Uimaharju (kiertoliittymä) I","62.914229","30.253019","4","","0","","167","","","0","",""
"178421","","Autoasemakaari E","62.914998","30.257833","4","","0","","167","","","0","",""
"178422","","Kujatie P","62.915744","30.261345","4","","0","","167","","","0","",""
"179343","","Akkala (Tohmajärvi) E","62.201151","30.266879","4","","0","","848","","","0","",""
"179403","","Heinävaara (Joensuu) P","62.559957","30.173526","2","","0","","167","","","0","",""
"179404","","Pohjoispää P","62.570988","30.160506","2","","0","","167","","","0","",""
"179405","","Pohjoispää E","62.571738","30.159495","2","","0","","167","","","0","",""
"179406","","Heinävaarantie th I","62.597024","30.113553","2","","0","","167","","","0","",""
"179408","","Kovero E","62.547224","30.537239","4","","0","","167","","","0","",""
"179416","","Honkalampikeskus I","62.61715686","29.51651036","2","","0","","426","","","0","",""
"179420","","Ylämylly L","62.61428196825861","29.547358765912605","2","","0","","426","","","0","",""
"179421","","Alamylly","62.61562834","29.55320439","2","","0","","426","","","0","",""
"179422","","Lahdensuo L","62.616668171365916","29.556591978434923","2","","0","","426","","","0","",""
"179423","","Lahdensuo I","62.61702587402206","29.55801600834012","2","","0","","426","","","0","",""
"179424","","Asemapolku L","62.619126471533235","29.566189083046147","2","","0","","426","","","0","",""
"179425","","Asemapolku I","62.619514040568724","29.567841136180245","2","","0","","426","","","0","",""
"179427","","Lehtoranta (Ylämyllyntie) L","62.62117","29.573734","2","","0","","426","","","0","",""
"179428","","Lautasuo L","62.62503640495666","29.583515333580845","2","","0","","426","","","0","",""
"179429","","Lautasuo I","62.62660636619348","29.586554836153436","2","","0","","426","","","0","",""
"179430","","Lautasaari L","62.6279288","29.59596698","2","","0","","426","","","0","",""
"179431","","Lautasaari I","62.62795203","29.59759872","2","","0","","426","","","0","",""
"179432","","Hirsiniemi L","62.62956547375365","29.605691790143407","2","","0","","426","","","0","",""
"179433","","Hirsiniemi I","62.63017414498589","29.608404880630673","2","","0","","426","","","0","",""
"179434","","Pakomaja L","62.63261125","29.61546654","2","","0","","426","","","0","",""
"179435","","Pakomaja I","62.63297956","29.61700102","2","","0","","426","","","0","",""
"179436","","Karttulantie L","62.63403290835116","29.624443724226857","2","","0","","426","","","0","",""
"179437","","Karttulantie I","62.63420701","29.62574737","2","","0","","426","","","0","",""
"179439","","Lentoasemantie I","62.63539830984608","29.642222662712296","1","","0","","167","","","0","",""
"179440","","Lepikkoranta L","62.63553083","29.65180641","1","","0","","167","","","0","",""
"179441","","Lepikkoranta I","62.63555277","29.65334648","1","","0","","167","","","0","",""
"179442","","Marjala L","62.63562673922048","29.667408752067438","1","","0","","167","","","0","",""
"179443","","Marjala I","62.63558127302991","29.668052146238605","1","","0","","167","","","0","",""
"179456","Jo5484","Martikkala L","62.65975","29.186791","3","","0","","426","","","0","",""
"179457","Jo5485","Martikkala I","62.659653","29.187213","3","","0","","426","","","0","",""
"179458","Jo5486","Viiniranta L","62.655064","29.202745","3","","0","","426","","","0","",""
"179459","Jo5487","Viiniranta I","62.654752","29.203717","3","","0","","426","","","0","",""
"179460","Jo5489","Jokiranta (Liperi) I","62.649185","29.218546","3","","0","","426","","","0","",""
"179461","Jo5488","Jokiranta (Liperi) L","62.649078","29.219007","3","","0","","426","","","0","",""
"179462","Jo5491","Viinijärven hautausmaa I","62.648005","29.22443","3","","0","","426","","","0","",""
"179463","Jo5490","Viinijärven hautausmaa L","62.645749","29.230194","3","","0","","426","","","0","",""
"179464","Jo5492","Viinijärvi koulunpysäkki","62.6448318822668","29.233574317790854","3","","0","","426","","","0","",""
"179465","","Iivontie L","62.64438318","29.23805084","3","","0","","426","","","0","",""
"179466","","Iivontie I","62.64432106","29.23865217","3","","0","","426","","","0","",""
"179467","","Taanilankuja L","62.64426854","29.2437742","3","","0","","426","","","0","",""
"179468","","Taanilankuja I","62.6441275","29.24487747","3","","0","","426","","","0","",""
"179469","","Rianiementie L","62.64328429","29.2504599","3","","0","","426","","","0","",""
"179470","","Rianiementie I","62.64303474","29.25160812","3","","0","","426","","","0","",""
"179471","","Kontkala (Viinijärvi) L","62.6382098","29.27172443","3","","0","","426","","","0","",""
"179472","","Kontkala (Viinijärvi) I","62.63733082","29.27709918","3","","0","","426","","","0","",""
"179473","","Käsämä kauppa L","62.63853751","29.35309499","2","","0","","426","","","0","",""
"179474","Jo5030","Vaiviontie","62.67182189344078","29.58145003625156","2","","0","","426","","","2","","3"
"179477","Jo5032","Härkinvaara L","62.67547512043528","29.56893638150012","2","","0","","426","","","2","","3"
"179479","Jo5034","Pohjalampi L","62.67639625137949","29.546780303416508","2","","0","","426","","","2","","3"
"179480","Jo5035","Vaivio L","62.678818585918506","29.48132310837197","2","","0","","426","","","2","","3"
"179483","","Käsämä Vaiviontie L","62.63636589197582","29.372653810385792","2","","0","","426","","","0","","3"
"179484","Jo5050","Käsämä kauppa I","62.63842725926944","29.356119189420134","2","","0","","426","","","0","","3"
"179494","","Katajakummuntie E","62.465474","29.935599","2","","0","","167","","","0","",""
"179495","","Katajakummuntie P","62.46556075","29.93423223","2","","0","","167","","","0","",""
"179496","","Kettämöntie","62.46560581","29.91939907","2","","0","","167","","","0","",""
"179497","","Suhmura koulu P","62.46593846834082","29.917443548360467","2","","0","","167","","","0","",""
"179498","","Suhmura koulu E","62.466086289743416","29.91652121581939","2","","0","","167","","","0","",""
"179499","","Järvikummuntie E","62.46890173","29.90807396","2","","0","","167","","","0","",""
"179500","","Järvikummuntie P","62.46946984","29.90711279","2","","0","","167","","","0","",""
"179501","","Suhmura E","62.47504511","29.8931854","2","","0","","167","","","0","",""
"179502","","Suhmura P","62.47490168","29.89199757","2","","0","","167","","","0","",""
"179503","","Salonkylä th P","62.47202465","29.88659138","2","","0","","167","","","0","",""
"179504","","Salonkylä th E","62.47199205","29.8856886","2","","0","","167","","","0","",""
"179505","","Riisseläntie P","62.47995261","29.87736945","2","","0","","167","","","0","",""
"179506","","Riisseläntie E","62.48038291","29.8764831","2","","0","","167","","","0","",""
"179507","","Mäntyläntie E","62.48375596","29.86729579","2","","0","","167","","","0","",""
"179508","","Mäntyläntie","62.48411537","29.86675712","2","","0","","167","","","0","",""
"179509","","Laitakangas E","62.49197998","29.85957804","2","","0","","167","","","0","",""
"179510","","Laitakangas P","62.49260719","29.85911968","2","","0","","167","","","0","",""
"179511","","Vehkapuro (Joensuu) E","62.49720208","29.85890661","2","","0","","167","","","0","",""
"179512","","Vehkapuro (Joensuu) P","62.49797268","29.85888244","2","","0","","167","","","0","",""
"179513","","Vehkapuro th E","62.50979939","29.8432327","2","","0","","167","","","0","",""
"179515","","Asematie I","62.51356409","29.84934163","2","","0","","167","","","0","",""
"179518","","Vehkapuro th L","62.50981692","29.84176058","2","","0","","167","","","0","",""
"179519","","Rantatie I","62.50703722","29.83048661","2","","0","","167","","","0","",""
"179520","","Rantatie L","62.50695735","29.82893844","2","","0","","167","","","0","",""
"179521","","Niittylahti opisto I","62.50834075736061","29.824063148955375","2","","0","","167","","","0","",""
"179537","Jo0163","Paksuniemi E","62.56796470546702","29.807871443830372","1","","0","","167","","","0","",""
"179538","Jo0162","Paksuniemi P","62.56835247314954","29.80741676532667","1","","0","","167","","","0","",""
"179540","Jo0048","Karhunmäki P","62.57116414959005","29.80434782411199","1","","0","","167","","","0","",""
"179545","","Iiksenvaara E","62.58232211578186","29.86851755952467","1","","0","","167","","","0","",""
"179546","","Iiksenvaara P","62.58279876493299","29.867964953373043","1","","0","","167","","","0","",""
"179547","","Iiksennotko E","62.589576","29.858772","1","","0","","167","","","0","",""
"179548","","Iiksennotko P","62.590187","29.857109","1","","0","","167","","","0","",""
"179549","","Iiksenrinne E","62.592979","29.851085","1","","0","","167","","","0","",""
"179550","","Iiksenrinne P","62.593426","29.850216","1","","0","","167","","","0","",""
"179551","","Iiksenjoki L","62.60237891","29.84604405","1","","0","","167","","","0","",""
"179552","","Iiksenjoki I","62.60258165","29.84683135","1","","0","","167","","","0","",""
"179553","","Saviaho L","62.60335276173791","29.85633932667229","1","","0","","167","","","0","",""
"179554","","Saviaho I","62.60323757465847","29.857083983441925","1","","0","","167","","","0","",""
"179555","","Hietala (Joensuu) L","62.60674426","29.8634798","1","","0","","167","","","0","",""
"179556","","Hietala (Joensuu) I","62.60706786","29.86559724","1","","0","","167","","","0","",""
"179557","","Leveälahti L","62.60812558","29.87054296","1","","0","","167","","","0","",""
"179558","","Leveälahti I","62.60841","29.871332","1","","0","","167","","","0","",""
"179559","","Utran kanava L","62.61153833","29.87768626","1","","0","","167","","","0","",""
"179560","","Utran kanava I","62.61170779","29.87885105","1","","0","","167","","","0","",""
"179561","","Multimäki (Joensuu) L","62.61106389","29.88488053","1","","0","","167","","","0","",""
"179562","","Multimäki (Joensuu) I","62.61099673","29.88546124","1","","0","","167","","","0","",""
"179563","","Purola L","62.61268788","29.89537167","1","","0","","167","","","0","",""
"179564","","Purola I","62.61309617","29.89676525","1","","0","","167","","","0","",""
"179565","","Paritsansuo L","62.61497306","29.90386036","1","","0","","167","","","0","",""
"179566","","Paritsansuo I","62.61512234","29.90441372","1","","0","","167","","","0","",""
"179567","","Aittopuro L","62.61637566","29.90916488","1","","0","","167","","","0","",""
"179568","","Aittopuro I","62.61646377","29.90950164","1","","0","","167","","","0","",""
"179569","","Kulho Kulhontie L","62.61921681396699","29.91824833023715","2","","0","","167","","","0","",""
"179571","","Linjatie L","62.63129629921878","29.700569460688843","1","","0","","167","","","0","",""
"179572","","Linjatie I","62.63175122425898","29.700334251877546","1","","0","","167","","","0","",""
"179573","","Onttolantie I","62.63662435","29.70165535","1","","0","","276","","","0","",""
"179574","","Onttolantie L","62.63742907","29.70128411","1","","0","","276","","","0","",""
"179575","","Puntarikoski th I","62.64081578","29.69345335","1","","0","","276","","","0","",""
"179576","","Puntarikoski th L","62.64113621","29.69137302","1","","0","","276","","","0","",""
"179577","","Onttola I","62.64510435","29.67889556","1","","0","","276","","","0","",""
"179578","","Onttola L","62.64532505","29.67855398","1","","0","","276","","","0","",""
"179579","","Koulutie (Onttola) I","62.64889731","29.67291273","1","","0","","167","","","0","",""
"179580","","Koulutie (Onttola) L","62.6493699","29.672168","1","","0","","276","","","0","",""
"179581","","Kurjentie (Kontiolahti) I","62.65498623","29.66100896","1","","0","","276","","","0","",""
"179582","","Kurjentie (Kontiolahti) L","62.65532865","29.66012451","1","","0","","276","","","0","",""
"179583","","Puntarikoskentie E","62.67271388","29.66785156","2","","0","","276","","","0","",""
"179584","","Puntarikoskentie P","62.67307156","29.66743778","2","","0","","276","","","0","",""
"179585","","Lonkapellon th E","62.62955298","29.73558844","1","","0","","167","","","0","",""
"179586","","Lonkapellon th P","62.62965257","29.73554621","1","","0","","167","","","0","",""
"179587","","Kilvenniementie L","62.65366882","29.84336705","1","","0","","276","","","0","",""
"179588","","Kilvenniementie I","62.65364846","29.8435774","1","","0","","276","","","0","",""
"179589","","Jokiranta I","62.64503571","29.86751474","1","","0","","276","","","0","",""
"179590","","Jokiranta L","62.64489578","29.86788611","1","","0","","276","","","0","",""
"179591","","Jynkänniemi L","62.638274","29.88636","1","","0","","276","","","0","",""
"179592","","Jynkänniemi I","62.63759279","29.8873955","1","","0","","276","","","0","",""
"179594","","Lehmon koulu E","62.64809013","29.81067191","1","","0","","276","","","0","",""
"179595","","Lehmon koulu P","62.64919465","29.81063863","1","","0","","276","","","0","",""
"179596","","Pajatie (Lehmo) E","62.65216139","29.81054862","1","","0","","276","","","0","",""
"179597","","Pajatie (Lehmo) P","62.65246056","29.81046873","1","","0","","167","","","0","",""
"179599","","Peltolantie (Lehmo) E","62.65585262","29.81196446","1","","0","","276","","","0","",""
"179600","","Lehmo E","62.65874477","29.81354309","1","","0","","276","","","0","",""
"179601","","Lehmo P","62.6594816","29.8136068","1","","0","","276","","","0","",""
"179602","","Kylmäojantie E","62.66168079","29.81535286","2","","0","","276","","","0","",""
"179603","","Kylmäojantie P","62.66187626","29.81572519","2","","0","","276","","","0","",""
"179604","","Kylmäojan kylätie E","62.66572825","29.81723146","2","","0","","276","","","0","",""
"179605","","Kylmäojan kylätie P","62.66632492","29.81635904","2","","0","","276","","","0","",""
"179606","","Keksikuja E","62.66859034","29.81448494","2","","0","","276","","","0","",""
"179607","","Keksikuja P","62.66972594","29.81355088","2","","0","","276","","","0","",""
"179608","","Autiolantie E","62.67148163","29.81202948","2","","0","","276","","","0","",""
"179609","","Autiolantie P","62.67188123","29.81180743","2","","0","","276","","","0","",""
"179610","","Myllylampi (Lehmo) P","62.67378235","29.81035115","2","","0","","276","","","0","",""
"179611","","Myllylampi (Lehmo) E","62.67437597","29.81014175","2","","0","","276","","","0","",""
"179612","","Piianpolku E","62.67689203346571","29.81161464128239","2","","0","","276","","","0","",""
"179613","","Piianpolku P","62.67746957301971","29.81190958140178","2","","0","","276","","","0","",""
"179615","","Kylmäojan koulu P","62.68220595","29.81976385","2","","0","","276","","","0","",""
"179616","","Lehmonsuo E","62.63148346","29.79967896","1","","0","","276","","","0","",""
"179617","","Lehmonsuo P","62.63158566","29.7997498","1","","0","","276","","","0","",""
"179618","","Lamminranta (Lehmo) P","62.63998108","29.80874472","1","","0","","276","","","0","",""
"179619","","Lamminranta (Lehmo) E","62.64116377","29.80971741","1","","0","","276","","","0","",""
"179620","","Lehmo urheilukeskus P","62.64451941","29.81196898","1","","0","","276","","","0","",""
"179621","","Lehmo urheilukeskus E","62.64546664","29.81258609","1","","0","","276","","","0","",""
"179622","","Jokiranta th E","62.65578774","29.8180973","1","","0","","276","","","0","",""
"179623","","Jokiranta th P","62.65649054","29.81842881","1","","0","","276","","","0","",""
"179624","","Aholantie (Kontiolahti) E","62.66016657","29.81904394","2","","0","","276","","","0","",""
"179625","","Aholantie (Kontiolahti) P","62.66063299","29.81927179","2","","0","","276","","","0","",""
"179626","","Lehmo (Vanha Nurmeksentie) E","62.66570982680038","29.82052700672054","2","","0","","276","","","0","",""
"179627","","Lehmo (Vanha Nurmeksentie) P","62.66659264492609","29.820352427457156","2","","0","","276","","","0","",""
"179628","","Niputtajantie E","62.67121553","29.81955479","2","","0","","276","","","0","",""
"179629","","Niputtajantie P","62.67197753","29.81946619","2","","0","","276","","","0","",""
"179630","","Nipputie E","62.67519046","29.81980845","2","","0","","276","","","0","",""
"179631","","Nipputie P","62.67568255","29.81991069","2","","0","","276","","","0","",""
"179632","","Kylmäoja th pohjoisristeys E","62.68202997","29.82201421","2","","0","","276","","","0","",""
"179633","","Kylmäojantie risteys (Pohjoinen) P","62.68271661081374","29.82280242824223","2","","0","","276","","","0","",""
"179634","","Ristisaari E","62.68555904","29.82649506","2","","0","","276","","","0","",""
"179635","","Ristisaari P","62.68627048","29.82730311","2","","0","","276","","","0","",""
"179636","","Uuronsuo E","62.69771962","29.83469883","2","","0","","276","","","0","",""
"179637","","Uuronsuo P","62.69818179","29.83478543","2","","0","","276","","","0","",""
"179639","","Oraviniementie E","62.61156743","29.9259815","2","","0","","276","","","0","",""
"179640","","Oraviniementie P","62.61232584","29.92531218","2","","0","","276","","","0","",""
"179641","","Kulho Kuurnantie P","62.61868427430209","29.919863332090326","2","","0","","276","","","0","",""
"179642","","Kulho Kuurnantie E","62.6189298","29.91976125","2","","0","","276","","","0","",""
"179643","","Loso E","62.62500569","29.91571171","2","","0","","276","","","0","",""
"179644","","Loso P","62.62601693","29.91564158","2","","0","","276","","","0","",""
"179645","","Taivaanpankontie E","62.62951993","29.91340379","2","","0","","276","","","0","",""
"179646","","Taivaanpankontie P","62.63037511","29.91250338","2","","0","","276","","","0","",""
"179647","","Mäntysaarentie E","62.63776113","29.91174775","2","","0","","276","","","0","",""
"179648","","Mäntysaarentie P","62.63833361","29.91159952","2","","0","","276","","","0","",""
"179649","","Kotalahti P","62.64626054","29.90689855","2","","0","","276","","","0","",""
"179650","","Kotalahti E","62.64733843","29.9061786","2","","0","","276","","","0","",""
"179651","","Koivulehdontie E","62.6539285","29.90203986","2","","0","","276","","","0","",""
"179652","","Koivulehdontie P","62.65497642","29.90123194","2","","0","","276","","","0","",""
"179653","","Riikola (Kontiolahti) P","62.6691324","29.89377232","2","","0","","276","","","0","",""
"179654","","Riikola (Kontiolahti) E","62.66930743","29.89419053","2","","0","","276","","","0","",""
"179655","","Pöllönvaarantie E","62.67926683","29.89645178","2","","0","","276","","","0","",""
"179656","","Pöllönvaarantie P","62.67986772","29.89646323","2","","0","","276","","","0","",""
"179657","Jo2044","Asemantie (Kontiolahti) P","62.73057928","29.84853456","2","","0","","276","","","0","",""
"179658","Jo2042","Kontiolahti ras E","62.73187161","29.85333672","2","","0","","276","","","0","",""
"179659","Jo2043","Kontiolahti ras P","62.73215531","29.85422375","2","","0","","276","","","0","",""
"179660","Jo2041","Asemankylä E","62.73306061","29.85724644","2","","0","","276","","","0","",""
"179661","Jo2040","Asemankylä P","62.73349516","29.85860526","2","","0","","276","","","0","",""
"179662","Jo2037","Satamatie E","62.73749942","29.86116008","2","","0","","276","","","0","",""
"179663","Jo2036","Satamatie P","62.73787208","29.86127954","2","","0","","276","","","0","",""
"179664","Jo2035","Huoltamotie (Kontiolahti) E","62.74104989","29.86107534","2","","0","","276","","","0","",""
"179665","Jo2034","Huoltamotie (Kontiolahti) P","62.74231814","29.86010474","2","","0","","276","","","0","",""
"179666","Jo2031","Hovinmäki (Kontiolahti) P","62.74760847","29.85406868","2","","0","","276","","","0","",""
"179667","Jo2030","Hovinmäki (Kontiolahti) E","62.747212486839345","29.854582797524213","2","","0","","276","","","0","",""
"179668","Jo2028","Höytiäisentie E","62.75146644","29.85187565","2","","0","","276","","","0","",""
"179669","Jo2027","Höytiäisentie P","62.75181281","29.85130382","2","","0","","276","","","0","",""
"179670","Jo2026","Yli-Ruunolantie P","62.75540317","29.84876727","2","","0","","276","","","0","",""
"179671","Jo2025","Yli-Ruunolantie E","62.75546253","29.84872256","2","","0","","276","","","0","",""
"179672","Jo2024","Yläpihantie (Kontiolahti) E","62.75718765","29.84677477","2","","0","","276","","","0","",""
"179673","Jo2023","Yläpihantie (Kontiolahti) P","62.75813444","29.84674752","2","","0","","276","","","0","",""
"179674","Jo2022","Rinnetie E","62.76047621","29.84699207","2","","0","","276","","","0","",""
"179675","Jo2021","Rakentajantie P","62.76143172","29.84713421","2","","0","","276","","","0","",""
"179678","","Kontiolahti kunnantalo E","62.7682018","29.84789896","2","","0","","276","","","0","",""
"179680","Jo2013","Puutarhatie E","62.7722","29.848949","2","","0","","276","","","0","",""
"179681","Jo2012","Puutarhatie P","62.772842","29.849618","2","","0","","276","","","0","",""
"179682","Jo2011","Hautausmaa (Kontiolahti) E","62.778017","29.850864","2","","0","","276","","","0","",""
"179683","Jo2010","Hautausmaa (Kontiolahti) P","62.779215","29.851626","2","","0","","276","","","0","",""
"179689","Jo2300","Turula E","62.820251","29.833962","3","","0","","276","","","0","",""
"179690","Jo2301","Turula P","62.820576","29.833444","3","","0","","276","","","0","",""
"179691","","Varparanta (Kontiolahti) E","62.825431","29.830513","3","","0","","276","","","0","",""
"179692","Jo2303","Varparanta (Kontiolahti) P","62.825837","29.830435","3","","0","","276","","","0","",""
"179693","Jo2304","Selkola E","62.831991","29.82588","3","","0","","276","","","0","",""
"179694","Jo2305","Selkola P","62.832352","29.825365","3","","0","","276","","","0","",""
"179695","Jo2306","Somerluodontie E","62.836395","29.819034","3","","0","","276","","","0","",""
"179696","Jo2307","Somerluodontie P","62.836636","29.818644","3","","0","","276","","","0","",""
"179697","Jo2308","Pyväntä E","62.83937","29.813975","3","","0","","276","","","0","",""
"179698","Jo2309","Pyväntä P","62.839407","29.813919","3","","0","","276","","","0","",""
"179699","Jo2311","Onkaniemi P","62.841922","29.809896","3","","0","","276","","","0","",""
"179700","Jo2310","Onkaniemi E","62.841931","29.809897","3","","0","","276","","","0","",""
"179701","Jo2312","Ala-Katajavaara E","62.84857","29.802591","3","","0","","276","","","0","",""
"179702","Jo2313","Ala-Katajavaara P","62.849053","29.802244","3","","0","","276","","","0","",""
"179703","Jo2315","Riihilahti (Varparannantie) P","62.854599","29.796639","3","","0","","276","","","0","",""
"179704","Jo2314","Riihilahti (Varparannantie) E","62.854708","29.796531","3","","0","","276","","","0","",""
"179705","Jo2316","Riihiaho P","62.859524","29.789695","3","","0","","276","","","0","",""
"179706","Jo2317","Riihiaho E","62.859891","29.789278","3","","0","","276","","","0","",""
"179707","Jo2318","Herneniemi E","62.868274","29.781833","3","","0","","276","","","0","",""
"179708","Jo2319","Herneniemi P","62.868421","29.781709","3","","0","","276","","","0","",""
"179709","Jo2320","Uusitalo (Kontiolahti) E","62.874854","29.780666","3","","0","","276","","","0","",""
"179710","Jo2321","Uusitalo (Kontiolahti) P","62.875344","29.780417","3","","0","","276","","","0","",""
"179711","Jo2322","Venejoensuu E","62.885849","29.775115","3","","0","","276","","","0","",""
"179712","Jo2323","Venejoensuu P","62.886212","29.774933","3","","0","","276","","","0","",""
"179713","Jo2324","Teerisaarentie E","62.894551","29.766036","3","","0","","276","","","0","",""
"179714","Jo2325","Teerisaarentie P","62.894851","29.765868","3","","0","","276","","","0","",""
"179715","Jo2328","Kalliosaari E","62.899703","29.763018","3","","0","","276","","","0","",""
"179716","Jo2329","Kalliosaari P","62.900267","29.762677","3","","0","","276","","","0","",""
"179717","Jo2326","Venejoki P","62.905972","29.760753","3","","0","","276","","","0","",""
"179718","Jo2327","Venejoki E","62.906848","29.760481","3","","0","","276","","","0","",""
"179719","Jo2330","Hovila E","62.929721","29.738512","4","","0","","276","","","0","","3"
"179720","Jo2331","Hovila P","62.930297","29.738428","4","","0","","276","","","0","",""
"179721","Jo2332","Onniaho E","62.942499","29.760331","4","","0","","276","","","0","",""
"179722","Jo2333","Onniaho P","62.94256","29.76085","4","","0","","276","","","0","",""
"179723","Jo2334","Rantamäki E","62.947308","29.769264","4","","0","","276","","","0","",""
"179724","Jo2335","Rantamäki P","62.947562","29.769584","4","","0","","276","","","0","",""
"179725","Jo2336","Lautala (Kontiolahti) E","62.95238","29.774438","4","","0","","276","","","0","",""
"179726","Jo2337","Lautala (Kontiolahti) P","62.95273","29.774925","4","","0","","276","","","0","",""
"179727","Jo2338","Romppala E","62.956852","29.778117","4","","0","","276","","","0","",""
"179728","Jo2339","Romppala P","62.957046","29.778333","4","","0","","276","","","0","",""
"179729","Jo2272","Romppala th L","62.956736","29.802646","4","","0","","276","","","0","",""
"179745","","Rukavedentie L","62.95812","30.196195","4","","0","","167","","","0","",""
"179756","","Hirvikangas (Ilomantsi) E","62.561498","30.935896","5","","0","","146","","","0","",""
"179757","","Hirvikangas (Ilomantsi) P","62.561853","30.935397","5","","0","","146","","","0","",""
"179758","","Porrasvaara E","62.615016","30.924592","6","","0","","146","","","0","",""
"179759","","Porrasvaara P","62.615668","30.924717","6","","0","","146","","","0","",""
"179760","","Rinnemäki E","62.630407","30.929557","6","","0","","146","","","0","",""
"179761","","Rinnemäki P","62.630702","30.929947","6","","0","","146","","","0","",""
"179773","","Huhmarinen th I","62.771","29.481757","3","","0","","607","","","0","",""
"179774","","Pitkäsenlahti","62.734503","29.465498","3","","0","","607","","","0","",""
"179775","","Reuhkajärventie E","62.740344","29.473465","3","","0","","607","","","0","",""
"179776","","Reuhkajärventie P","62.740612","29.475053","3","","0","","607","","","0","",""
"179777","","Siltavaara E","62.747328","29.479729","3","","0","","607","","","0","",""
"179778","","Siltavaara P","62.748276","29.480416","3","","0","","607","","","0","",""
"179779","","Mansikkaniemi (Polvijärvi) E","62.756641","29.483743","3","","0","","607","","","0","",""
"179780","","Mansikkaniemi (Polvijärvi) P","62.757572","29.48341","3","","0","","607","","","0","",""
"179781","","Reuhanranta E","62.760983","29.483031","3","","0","","607","","","0","",""
"179782","","Reuhanranta P","62.761924","29.482601","3","","0","","607","","","0","",""
"179783","","Huhmarinen th E","62.770043","29.481559","3","","0","","607","","","0","",""
"179784","","Huhmarinen th P","62.770915","29.480476","3","","0","","607","","","0","",""
"179785","","Kuorevaara P","62.793531","29.452114","3","","0","","607","","","0","",""
"179786","","Kuorevaara E","62.79386","29.451827","3","","0","","607","","","0","",""
"179787","","Kilkkala E","62.817547","29.42139","3","","0","","607","","","0","",""
"179788","","Kilkkala P","62.817852","29.421434","3","","0","","607","","","0","",""
"179789","","Hanhilampi E","62.843893","29.383614","4","","0","","607","","","0","",""
"179790","","Hanhilampi P","62.84404","29.38233","4","","0","","607","","","0","",""
"179791","","Lierinlampi E","62.846567","29.374183","4","","0","","607","","","0","",""
"179792","","Lierinlampi P","62.847409","29.37323","4","","0","","607","","","0","",""
"179793","","Pappilantie (Polvijärvi) E","62.851694","29.367267","4","","0","","607","","","0","",""
"179794","","Pappilantie (Polvijärvi) P","62.852203","29.366876","4","","0","","607","","","0","",""
"179795","","Haavikonmäki E","62.849485","29.347418","4","","0","","607","","","0","",""
"179796","","Haavikonmäki P","62.849418","29.34873","4","","0","","607","","","0","",""
"179797","","Haavikontie (Polvijärvi) E","62.849379","29.355899","4","","0","","607","","","0","",""
"179798","","Haavikontie (Polvijärvi) P","62.849701","29.357045","4","","0","","607","","","0","",""
"179799","","Polvijärvi (Haavikontie) E","62.852311","29.36258","4","","0","","607","","","0","",""
"179800","","Polvijärvi (Haavikontie) P","62.852512","29.364011","4","","0","","607","","","0","",""
"181350","Jo0170","Peltolankatu P","62.59450206461031","29.768343887626","1","","0","","167","","","0","",""
"181371","Jo0184","Pyhäselänkatu I","62.58573452790587","29.768407119311227","1","","0","","167","","","0","",""
"183461","Jo2001","Kontiolahti linja-autoasema","62.76397256815067","29.848935786983585","2","","0","","276","","","0","",""
"184182","Jo0173","Penttilänkatu P","62.59606803","29.77152661","1","","0","","167","","","0","",""
"184183","Jo0266","Vehkataival E","62.57956354","29.77148361","1","","0","","167","","","0","",""
"185610","","Kauppatie L","62.79895","30.154735","3","","0","","167","","","0","",""
"187352","","Uuro ramppi I","62.71787317","29.85592504","2","","0","","276","","","0","",""
"187353","","Uuro ramppi L","62.716127188091995","29.859889376389","2","","0","","276","","","0","",""
"187354","","Uuro Lieksantie I","62.71527436839699","29.86300393895552","2","","0","","276","","","0","",""
"187396","","Tyniläntie E","62.50474311","29.85275931","2","","0","","167","","","0","",""
"187397","","Tyniläntie P","62.5049331","29.851569","2","","0","","167","","","0","",""
"187400","","Mansikka-ahontie P","62.538703","29.845718","2","","0","","167","","","0","",""
"187403","","Kunnasniementie E","62.69000833","29.62945523","2","","0","","276","","","0","",""
"187404","","Kunnasniementie P","62.69126398","29.62821541","2","","0","","276","","","0","",""
"187405","","Säynevaarantie E","62.70703235","29.61755592","2","","0","","276","","","0","",""
"187406","","Säynevaarantie P","62.70765914","29.61869464","2","","0","","276","","","0","",""
"187407","","Saunasuontie E","62.71720198","29.61913202","2","","0","","276","","","0","",""
"187408","","Saunasuontie P","62.71807888","29.61900026","2","","0","","276","","","0","",""
"187409","","Utriaisenlahti P","62.72256569","29.61824105","2","","0","","276","","","0","",""
"187410","","Utriaisenlahti E","62.72292494","29.61813086","2","","0","","276","","","0","",""
"187411","","Tervauuro E","62.70785469","29.84046901","2","","0","","276","","","0","",""
"187412","","Tervauuro P","62.70848627","29.84184067","2","","0","","276","","","0","",""
"187413","Jo2548","Uuro E","62.71375332","29.85775122","2","","0","","276","","","0","",""
"187414","Jo2549","Uuro P","62.71468201762216","29.86035119999995","2","","0","","276","","","0","",""
"187753","","Hyttilä (Liperi) L","62.59114228","29.50520999","2","","0","","426","","","0","",""
"187754","Jo5631","Immola P","62.464709","29.55327","3","","0","","426","","","0","",""
"187755","","Urheilukenttä P (Outokumpu)","62.7222482725715","29.015618763508495","4","","0","","309","","","0","",""
"187756","","Outokumpu kaupungintalo L","62.724989","29.018042","4","","0","","309","","","0","",""
"187757","","Outokumpu kaupungintalo P","62.725951","29.019849","4","","0","","309","","","0","",""
"188298","","Haavanpää (vt6) P","62.477204","29.956573","2","","0","","167","","","0","",""
"188329","","Uuron teollisuusalue E","62.72019333","29.85432554","2","","0","","276","","","0","",""
"188330","","Uuron teollisuusalue P","62.72124645","29.8547137","2","","0","","276","","","0","",""
"188331","","Pilkkasuo E","62.72249927","30.05539502","2","","0","","276","","","0","",""
"188332","","Pilkkasuo P","62.72309705","30.05310306","2","","0","","276","","","0","",""
"188333","","Leppävirrantie E","62.72631786","30.0335442","2","","0","","276","","","0","",""
"188334","","Leppävirrantie P","62.72693316","30.03184948","2","","0","","276","","","0","",""
"188358","","Turkistarhantie (Kontiolahti)","62.72955085","29.86992951","2","","0","","276","","","0","",""
"189411","Jo0027","Huvimäentie E","62.53111558","29.84225071","2","","0","","167","","","0","",""
"189412","Jo0070","Kievarintie  E","62.52707862","29.84639696","2","","0","","167","","","0","",""
"189413","Jo0069","Kievarintie  P","62.52618102","29.84695953","2","","0","","167","","","0","",""
"189414","Jo0064","Kettukallio  L","62.52155647","29.84865239","2","","0","","167","","","0","",""
"189415","Jo0065","Kettukallio  I","62.52131185","29.85018765","2","","0","","167","","","0","",""
"190100","","Rähäkkälänmäki P","62.41869","29.916098","3","","0","","167","","","0","",""
"190101","","Ilmarisentie I","62.105079","30.140502","5","","0","","260","","","0","",""
"190102","","Kertsunpuro L","62.127267","30.170528","5","","0","","260","","","0","",""
"190103","","Kertsunpuro I","62.127863","30.17082","5","","0","","260","","","0","",""
"190104","","Kololahdenkorpi E","62.142591","30.198376","5","","0","","260","","","0","",""
"190105","","Kololahdenkorpi P","62.14344","30.202459","5","","0","","260","","","0","",""
"190106","","Humalajoki (Tohmajärvi) E","62.151658","30.230003","4","","0","","848","","","0","",""
"190107","","Humalajoki (Tohmajärvi) P","62.151874","30.230372","4","","0","","848","","","0","",""
"190108","","Keikonkangas E","62.168125","30.239678","4","","0","","848","","","0","",""
"190109","","Keikonkangas P","62.168409","30.239862","4","","0","","848","","","0","",""
"193416","Jo0046","Karhunkaari L","62.57123373095873","29.812148750000322","1","","0","","167","","","0","",""
"193417","Jo0003","Artiokatu L","62.57110797549444","29.820318857433847","1","","0","","167","","","0","",""
"193436","Jo0047","Karhunkaari I","62.57118868683164","29.813855936745178","1","","0","","167","","","0","",""
"193497","Jo0016","Hammaslahden koulu","62.43703954","29.96621395","2","","0","","167","","","0","",""
"208206","","Rantalantie 5","63.311011","30.041684","7","","0","","422","","","0","",""
"208207","","Mähköntie 15","63.310677","30.052234","7","","0","","422","","","0","",""
"208208","","Lamminkyläntie (siltaE)","63.308919","30.05758","7","","0","","422","","","0","",""
"208209","","Lamminkyläntie 13","63.305418","30.065435","7","","0","","422","","","0","",""
"208210","","Mähköntie-Kirkkotarhantie","63.308671","30.058652","7","","0","","422","","","0","",""
"208213","","Mähköntie-Reunatie","63.311316","30.050085","7","","0","","422","","","0","",""
"208215","","Lieksa linja-autoasema E","63.31868641012889","30.020917511569607","7","","0","","422","","","0","",""
"208231","","Kuhmonkatu/ koulut","63.325670884853885","30.02088166857866","7","","0","","422","","","0","",""
"208235","","Koulukatu Koulu","63.319826","30.02931","7","","0","","422","","","0","",""
"210194","","Pogostan alakoulu","62.665912","30.928521","6","","0","","146","","","0","",""
"210195","Jo5022","Viinijärvi las","62.644035753296","29.232262364111584","3","","0","","426","","","0","",""
"211052","Jo2003","Kontiolahden yläkoulun ja lukion pysäkki","62.76807067834063","29.852340648599025","2","","0","","276","","","0","",""
"211054","Jo2111","Harjukuja L","62.67559305","29.80774147","2","","0","","276","","","0","",""
"211055","Jo2112","Harjukuja I","62.67533415","29.80833906","2","","0","","276","","","0","",""
"211056","Jo2113","Kruununtie E","62.67480161621101","29.799332068597707","2","","0","","276","","","0","",""
"211057","Jo2114","Kruununtie P","62.6739708214919","29.799243574774824","2","","0","","276","","","0","",""
"211058","Jo2115","Katajakuja (Lehmo) P","62.67272921","29.79925007","2","","0","","276","","","0","",""
"211059","Jo2116","Katajakuja E","62.67275386","29.79923201","2","","0","","276","","","0","",""
"211060","Jo2117","Kangastie E","62.67055511","29.80104907","2","","0","","276","","","0","",""
"211061","Jo2118","Kangastie P","62.67030627","29.80123368","2","","0","","276","","","0","",""
"211062","Jo2120","Lehmola L","62.66873153","29.79827271","2","","0","","276","","","0","",""
"211063","Jo2121","Lehmola I","62.66786709","29.79637436","2","","0","","276","","","0","",""
"211064","Jo2122","Venemiehentie P","62.66447349","29.79932323","2","","0","","276","","","0","",""
"211065","Jo2123","Venemiehentie E","62.66425681","29.79966456","2","","0","","276","","","0","",""
"211066","Jo2124","Metsätähdentie I","62.66288755737805","29.804032564417835","2","","0","","276","","","0","",""
"211067","Jo2125","Metsätähdentie L","62.66279350090156","29.804631311164112","2","","0","","276","","","0","",""
"211068","Jo2126","Menninkäisentie P","62.66015087","29.81078524","2","","0","","276","","","0","",""
"211069","Jo2127","Menninkäisentie E","62.65984341","29.81126764","2","","0","","276","","","0","",""
"211074","Jo2140","Paiholan sairaala","62.68491656","29.93366858","2","","0","","276","","","0","",""
"211075","Jo0340","Kulho L","62.62181240924275","29.925345298836092","2","","0","","276","","","0","",""
"211081","Jo5001","Keskusta (Liperi) P","62.529984031913145","29.386619174299494","2","","0","","426","","","0","",""
"211083","Jo5012","Vartio pohjoiseen","62.62477419006732","29.554949813135302","2","","0","","426","","","0","",""
"211085","Jo5013","Kirkkoniemi pohjoiseen","62.626801","29.55724652","2","","0","","426","","","0","",""
"211086","Jo5018","Kirkkoniemi etelään","62.62642327","29.5568468","2","","0","","426","","","0","",""
"211087","Jo5014","Paloaukea pohjoiseen","62.63078406","29.55120632","2","","0","","426","","","0","",""
"211088","Jo5017","Paloaukea etelään","62.63063827","29.55157435","2","","0","","426","","","0","",""
"211761","Jo0076","Koillispuisto L","62.62716424684016","29.83828230919264","1","","0","","167","","","0","",""
"211904","","Alatori I","62.731183","29.01003","4","","0","","309","","","0","",""
"211905","","Alatori L","62.731164","29.010088","4","","0","","309","","","0","",""
"211906","","Ent. maatila","62.732648","29.019308","4","","0","","309","","","0","",""
"211907","","Peltokatu th","62.732937","29.022949","4","","0","","309","","","0","",""
"211908","","Kaasila L","62.733331","29.028006","4","","0","","309","","","0","",""
"211909","","Kaasila I","62.733407","29.02897","4","","0","","309","","","0","",""
"211910","","Asevelitie th","62.733894","29.037478","4","","0","","309","","","0","",""
"211911","","Mäntytie th","62.734001","29.044942","4","","0","","309","","","0","",""
"211912","","Ammattiopisto L","62.732766","29.052665","4","","0","","309","","","0","",""
"211913","","Ammattiopisto I","62.732148","29.055597","4","","0","","309","","","0","",""
"212129","","Outokumpu linja-autoasema","62.728718","29.013483","4","","0","","309","","","0","",""
"212131","Jo5019","Vartio etelään","62.62350676","29.55457128","2","","0","","426","","","0","",""
"230650","","Sirni L","62.51969755","29.85721204","2","","0","","167","","","0","",""
"230651","","Sirni I","62.51926831","29.85548304","2","","0","","167","","","0","",""
"230652","","Asematie L","62.51302112","29.84939858","2","","0","","167","","","0","",""
"230653","","Vehkapuro th I","62.5104901","29.84341215","2","","0","","167","","","0","",""
"230654","","Mulonväylä-Reijolan ohitustie","62.51448364","29.88918289","2","","0","","167","","","0","",""
"230655","","Leinosenmäki E","62.52705597","29.85487782","2","","0","","167","","","0","",""
"230658","","Kylmäojantie eteläristeysP","62.6378761","29.80476398","1","","0","","167","","","0","",""
"230659","","Suutelantie E","62.64241756","29.80749701","1","","0","","167","","","0","",""
"230660","","Suutelantie P","62.64297374","29.80795544","1","","0","","276","","","0","",""
"230661","","Heramontie E","62.64516736","29.8103468","1","","0","","276","","","0","",""
"230662","","Heramontie P","62.64591913","29.81063926","1","","0","","276","","","0","",""
"230663","","Peltolantie (Lehmo) P","62.65552283","29.81158726","1","","0","","276","","","0","",""
"230664","","Kylmäojan koulu E","62.68208726","29.81873936","2","","0","","276","","","0","",""
"230665","","Kylmäojantie eteläristeys E","62.63719781","29.80485093","1","","0","","276","","","0","",""
"230666","","Kuurnantie E","62.704731859939415","29.890218592327834","2","","0","","276","","","0","",""
"230667","","Kuurnantie P","62.70554784956177","29.892550169073164","2","","0","","276","","","0","",""
"231229","jo2211","Lehmola th P","62.67350100210178","29.792542340141182","2","","0","","276","","","0","","3"
"231230","Jo2210","Lehmola th E","62.673593801841655","29.790887739625916","2","","0","","276","","","0","","3"
"231231","","Siilainen I","62.61705987","29.73086868","1","","0","","167","","","0","",""
"231232","Jo2215","Uuro ramppi (N) P","62.71626554096577","29.85728058035633","2","","0","","276","","","0","",""
"231233","","Uuro ramppi (L) P","62.717143605328886","29.859099723135238","2","","0","","276","","","0","",""
"231234","Jo2216","Uuro ramppi E","62.716988636528924","29.855867681227874","2","","0","","276","","","0","",""
"231236","Jo1153","Reijola ramppi E","62.54324405846223","29.845625342740195","2","","0","","167","","","0","","3"
"231511","","Hammaslahti liikekeskus L","62.432121035165636","29.968275034536553","2","","0","","167","","","0","",""
"231512","","Haukilampi","62.428784","29.958805","3","","0","","167","","","0","",""
"231513","","Ohvana th P","62.426844","29.949893","3","","0","","167","","","0","",""
"231515","","Kankkula L","62.134621","30.1774","5","","0","","260","","","0","",""
"231516","","Kankkula I","62.135176","30.178246","5","","0","","260","","","0","",""
"231518","","Viesimola E","62.493362","30.231747","3","","0","","167","","","0","",""
"231536","","Kuhasalontie L","62.583263","29.76248934","1","","0","","167","","","0","",""
"231537","","Vehkalahti L","62.5807284","29.76857029","1","","0","","167","","","0","",""
"231551","","Pohjanperä I","62.749766","29.436885","3","","0","","607","","","0","",""
"231561","","Urheilutalo E (Outokumpu)","62.721464","29.014671","4","","0","","309","","","0","",""
"231569","","Autio (Kontiolahti) E","62.735314719714296","30.019331400074066","2","","0","","276","","","0","",""
"231570","","Autio (Kontiolahti) P","62.7360889000143","30.01878382629544","2","","0","","276","","","0","",""
"231684","","Kontupelto E","62.75377693","29.85803111","2","","0","","276","","","0","",""
"231699","","Käpykangas E","62.61963286","29.77410266","1","","0","","167","","","0","",""
"231820","","Ukkola (Lieksantie) E","62.957138","30.198673","4","","0","","167","","","0","",""
"231921","Jo5450","Kontkala th I","62.635905","29.275006","3","","0","","426","","","0","",""
"300071","Jo0294","Urheilupuisto L","62.59946870327571","29.739842766865095","1","","0","","167","","","0","",""
"300072","Jo0295","Yrjönkatu I","62.622634","29.880301","1","","0","","167","","","0","",""
"300073","Jo0296","Yrjönkatu L","62.621956","29.877643","1","","0","","167","","","0","",""
"300074","Jo0297","Ruoritie E","62.613743","29.813599","1","","0","","167","","","0","",""
"300075","Jo0298","Pursitie E","62.61037644","29.81403992","1","","0","","167","","","0","",""
"300076","Jo0299","Uikunkatu I","62.61035","29.822105","1","","0","","167","","","0","",""
"300078","Jo0301","Tuulipuisto P","62.615099","29.828892","1","","0","","167","","","0","",""
"300079","Jo0302","Tuulipuisto E","62.615230549090775","29.82850415211525","1","","0","","167","","","0","",""
"300080","Jo0303","Riihisärkänkatu P","62.61642773871343","29.818795796295","1","","0","","167","","","0","",""
"300081","Jo0305","Pilkkitie P","62.619255","29.837928","1","","0","","167","","","0","",""
"300082","Jo0306","Ankkuritie L","62.62156961639401","29.83637568353601","1","","0","","167","","","0","",""
"300083","Jo0307","Kuohutie L","62.621857","29.831016","1","","0","","167","","","0","",""
"300084","Jo0308","Harustie L","62.621463","29.824811","1","","0","","167","","","0","",""
"300085","Jo0309","Ruuhitie E","62.620742","29.818999","1","","0","","167","","","0","",""
"300086","Jo0310","Sirkkala L","62.60222635006299","29.776187910381573","1","","0","","167","","","0","",""
"300087","Jo0311","Sirkkala I","62.60213409086347","29.776339290668016","1","","0","","167","","","0","",""
"300088","Jo0312","Suvikatu I","62.59024753819497","29.784191353338247","1","","0","","167","","","0","",""
"300090","Jo0314","Kauppakaari P","62.61208737558138","29.773308017197014","1","","0","","167","","","0","",""
"300091","Jo0315","Kauppakaari E","62.61216057231541","29.7731669239429","1","","0","","167","","","0","",""
"300092","Jo0316","Voimatie P","62.617546877698686","29.779725067459356","1","","0","","167","","","0","",""
"300093","Jo0317","Voimatie I","62.618049","29.778088","1","","0","","167","","","0","",""
"300094","Jo0318","Wahlforssinkatu P","62.61940852657767","29.766650580356238","1","","0","","167","","","0","",""
"300095","Jo0319","Wahlforssinkatu E","62.619387040667455","29.766629305558062","1","","0","","167","","","0","",""
"300099","Jo0300","Pataluoto P","62.613391","29.830714","1","","0","","167","","","0","",""
"300100","Jo0320","Rahtikatu P","62.62603387270129","29.762652472114905","1","","0","","167","","","0","",""
"300101","Jo0321","Rahtikatu E","62.62537000000022","29.7625685595248","1","","0","","167","","","0","",""
"300102","Jo0322","Lukkotehdas P","62.62759276679488","29.762901122684596","1","","0","","167","","","0","",""
"300103","Jo0323","Lukkotehdas E","62.628013533624966","29.76296683928686","1","","0","","167","","","0","",""
"300104","Jo0324","Raatekankaantie I","62.628087","29.767999","1","","0","","167","","","0","",""
"300105","Jo0325","Hirsitie P","62.629072632006356","29.771286571758058","1","","0","","167","","","0","",""
"300107","Jo0326","Sateenkaari I","62.63299030105834","29.646040253967826","1","","0","","167","","","0","",""
"300108","Jo0327","Apilakuja E","62.630529","29.685905","1","","0","","167","","","0","",""
"300109","Jo0329","Pesolantie E","62.624103099658015","29.690681428241792","1","","0","","167","","","0","",""
"300110","Jo0330","Vilniuksenkatu E","62.621391","29.691047","1","","0","","167","","","0","",""
"300111","Jo0331","Roskildenkatu E","62.619534","29.693775","1","","0","","167","","","0","",""
"300112","Jo0332","Mujusenpiha E","62.617608","29.694639","1","","0","","167","","","0","",""
"300113","Jo0333","Lehtokangas I","62.616181776724744","29.704145198742612","1","","0","","167","","","0","",""
"300114","Jo0334","Kaislaranta I","62.617286244780736","29.709155697097415","1","","0","","167","","","0","",""
"300115","Jo0335","Kurkihirrentie I","62.51263330079122","29.81603152149595","2","","0","","167","","","0","",""
"300116","Jo0336","Rauhankatu I","62.607102","29.769988","1","","0","","167","","","0","",""
"300117","Jo0337","Noljakka I","62.627369736304516","29.695400716980263","1","","0","","167","","","0","",""
"300332","","Artiokatu I","62.57071941614988","29.82182018783459","1","","0","","167","","","0","",""
"300333","","Niittylahti opisto L","62.50880628464037","29.82333875826659","2","","0","","167","","","0","",""
"300407","","Kitee linja-autoasema","62.095401","30.146152","5","","0","","260","","","0","",""
"300420","","Polvijärvi linja-autoasema","62.85454157592169","29.367490601822006","4","","0","","607","","","0","",""
"300437","Jo5023","Hirvolanvaaran th L","62.636921000000214","29.288831880950926","3","","0","","426","","","0","",""
"300503","Jo2100","Huoltamotie (Kontiolahti) I","62.742431","29.86145","2","","0","","276","","","0","",""
"300535","","Kiihtelysvaara","62.492452","30.250432","3","","0","","167","","","0","",""
"300576","","Heinävaaran kylätie","62.576697","30.154334","2","","0","","167","","","0","",""
"300592","","Tuupovaara","62.48543285121819","30.61704397916882","4","","0","","167","","","0","",""
"300641","Jo0338","Joensuu Lentoasema","62.657708","29.613409","2","","0","","426","","","0","",""
"300663","","Arvinsalmi","62.394385","29.571433","3","","0","","426","","","0","",""
"300760","","Marjovaarantie L","62.602037","30.742319","5","","0","","146","","","0","",""
"301017","Jo2008","Iiksenniitty (tienhaara)","62.589852","29.934977","2","","0","","276","","","0","",""
"301018","Jo2005","Lehtoi E","62.635011","30.128088","2","","0","","276","","","0","",""
"301019","Jo2007","Mönni E","62.697601","30.104882","2","","0","","276","","","0","",""
"301026","","Niva P","62.417029","29.867624","3","","0","","167","","","0","",""
"301027","","Niva E","62.416801","29.867311","3","","0","","167","","","0","",""
"301050","Jo0350","Särkivaara","62.55862033429881","30.01174755952466","2","","0","","167","","","0","",""
"301054","","Kolmikanta (Ilomantsi) L","62.616541","30.77478","5","","0","","146","","","0","",""
"301185","Jo2370","Kontioniemi","62.74422903908087","29.805412602515627","2","","0","","276","","","0","",""
"301300","","Kontiolahti kunnantalo P","62.769615","29.84817","2","","0","","276","","","0","",""
"301317","Jo0304","Riippapuisto E","62.618509","29.818864","1","","0","","167","","","0","",""
"301320","Jo0339","Kerolantie I","62.619772","29.921013","2","","0","","276","","","0","",""
"301400","Jo5003","Liperi koulukeskus","62.533228","29.372967","2","","0","","426","","","0","",""
"301405","","Hammaslahti linja-autoasema","62.430409","29.964285","2","","0","","167","","","0","",""
"301406","Jo5025","Paloaukea koulu","62.62951453221721","29.55056196676368","2","","0","","426","","","0","",""
"301424","","Uimaharju Asemankaari 5","62.91565652284319","30.259160608459464","4","","0","","167","","","0","",""
"302991","","Sotkuma kauppa","62.73718","29.441289","3","","0","","607","","","0","",""
"302999","","Kovero huoltoasema","62.555122","30.517327","4","","0","","167","","","0","",""
"303123","","Sola (Polvijärvi) P","62.781224","29.347709","3","","0","","607","","","0","",""
"303124","","Sola (Polvjärvi) E","62.783211","29.345416","3","","0","","607","","","0","",""
"304257","Jo0341","Niittylahden koulu","62.520785669718386","29.869157296957912","2","","0","","167","","","0","",""
"304334","Jo0348","Kumpu (Joensuu) L","62.52139614859073","29.964069449074124","2","","0","","167","","","0","",""
"304335","Jo0349","Kumpu (Joensuu) I","62.52149769530828","29.965801203705347","2","","0","","167","","","0","",""
"305109","","Uimaharju kiertoliittymä L","62.913861","30.250673","4","","0","","167","","","0","",""
"305496","","Tohmajärven kunnanvirasto I","62.223026","30.332273","4","","0","","848","","","0","",""
"305575","","Tohmajärvi kunnanvirasto L","62.223304","30.331553","4","","0","","848","","","0","",""
"305741","","Kauppakatu (Tohmajärvi)","62.22539","30.331129","4","","0","","848","","","0","",""
"305757","","Kemien koulu","62.221445","30.33489","4","","0","","848","","","0","",""
"305758","","Kovero P","62.545545","30.538947","4","","0","","167","","","0","",""
"306434","","Marjovaarantie I","62.602301","30.74321","5","","0","","146","","","0","",""
"306435","","Kolmikanta (Ilomantsi) I","62.616647","30.775204","5","","0","","146","","","0","",""
"306460","Jo0352","Suvikatu L","62.5904671372889","29.783745043447112","1","","0","","167","","","0","",""
"306902","Jo2004","Lehtoi P","62.635243","30.128045","2","","0","","276","","","0","",""
"306903","Jo2006","Mönni P","62.697807","30.104774","2","","0","","276","","","0","",""
"307400","Jo2009","Lahdenperä","62.743114","29.616927","2","","0","","276","","","0","",""
"308889","","Tapionkatu I","62.58273474977358","29.78196772156562","1","","0","","167","","","0","",""
"308890","","Tapionkatu L","62.58303579552531","29.783665585667226","1","","0","","167","","","0","",""
"309155","Jo2045","Naavakaari P","62.745515","29.85675","2","","0","","276","","","0","",""
"309156","Jo2046","Naavakaari E","62.745262","29.85705","2","","0","","276","","","0","",""
"309169","Jo2047","Ollilantie P","62.73558","29.860551","2","","0","","276","","","0","",""
"309170","Jo2048","Ollilantie E","62.735066","29.860358","2","","0","","276","","","0","",""
"309602","Jo5024","Liperin terveyskeskus E","62.534249","29.372118","2","","0","","426","","","0","",""
"310588","Jo0356","Mehtimäki P","62.601420918643974","29.74771955010919","1","","0","","167","","","0","",""
"310589","Jo0133","Matara P","62.56860461925525","29.825515088316315","1","","0","","167","","","0","",""
"310590","Jo0134","Matara E","62.56804255479687","29.82607546935529","1","","0","","167","","","0","",""
"310592","","Mertajärvi P","62.835378","29.399581","3","","0","","607","","","0","",""
"310593","","Mertajärvi E","62.834975","29.40002","3","","0","","607","","","0","",""
"310610","Jo0357","Kompassikatu P","62.56633672582982","29.826604127882998","1","","0","","167","","","0","",""
"310611","Jo0358","Kompassikatu E","62.56569165686511","29.826185703276717","1","","0","","167","","","0","",""
"310612","Jo0359","Haapanurmi P","62.5633472941806","29.826561212537566","1","","0","","167","","","0","",""
"310613","Jo0360","Haapanurmi E","62.56243273254296","29.827558994292804","1","","0","","167","","","0","",""
"310686","Jo2049","Supantie P","62.66017130132459","29.695401191712044","2","","0","","276","","","0","",""
"310687","Jo2050","Ensolantie L","62.674287097643564","29.795117676259746","2","","0","","276","","","0","",""
"310730","","Pykäläkorpi P","63.109814","30.122081","6","","0","","422","","","0","",""
"310731","","Pykäläkorpi E","63.109608","30.122059","6","","0","","422","","","0","",""
"310732","","Sänkilampi E","63.103323","30.123149","5","","0","","422","","","0","",""
"310733","","Sänkilampi P","63.098622","30.125698","5","","0","","422","","","0","",""
"311304","","Haukivaara (Särkivaara th)","62.549161","30.935432","5","","0","","146","","","0","",""
"312006","","Kuusijärventie P","62.792192","30.085655","3","","0","","167","","","0","",""
"312106","","Kuusijärventie E","62.791445","30.084478","3","","0","","167","","","0","",""
"315006","Jo0364","Repola L","62.589072721762406","29.76371668204052","1","","0","","167","","","0","",""
"315007","Jo0365","Repola I","62.589111697296026","29.764599051901477","1","","0","","167","","","0","",""
"315105","Jo0362","Saharinne P","62.59195161206495","29.759712067077","1","","0","","167","","","0","",""
"315106","Jo0363","Saharinne E","62.5910683009063","29.75957872997407","1","","0","","167","","","0","",""
"315107","Jo0366","Mäntyläntie L","62.5897876423161","29.769105163048735","1","","0","","167","","","0","",""
"315108","Jo0367","Mäntyläntie I","62.58979381619758","29.769153442810545","1","","0","","167","","","0","",""
"315217","Jo0368","Haravakatu P","62.6046084698022","29.860861806157086","1","","0","","167","","","0","",""
"315218","Jo0369","Haravakatu E","62.60438449532168","29.860786704302576","1","","0","","167","","","0","",""
"319408","","Heinävaaran koulu L","62.5527216230486","30.180769688859233","2","","0","","167","","","0","","3"
"320918","Jo0371","Ravirata L","62.5991971","29.7361107","1","","0","","167","","","0","",""
"320919","Jo0372","Vainoniemi E","62.6040452","29.7244937","1","","0","","167","","","0","",""
"321110","Jo0373","Torikatu E","62.60298472886086","29.76520102209046","1","","0","","167","","","0","",""
"321928","Jo2052","Marjosärkäntie P","62.6456404359679","29.733165387810388","1","","0","","276","","","0","","3"
"321929","Jo2055","Marjorinteentie L","62.64731370969666","29.733162558925727","1","","0","","276","","","0","","3"
"321930","Jo2054","Marjorinteentie I","62.64726354689232","29.733269746399515","1","","0","","276","","","0","","3"
"321931","Jo2059","Kyyrönsuo-Puntarikoski E","62.65305440322114","29.702550085708413","1","","0","","276","","","0","","3"
"321932","Jo2060","Kyyrönsuo-Puntarikoski I","62.65310691608833","29.70277800632072","1","","0","","276","","","0","","3"
"321933","Jo2056","Kyyrönsuontie th I","62.64532087590928","29.783636368167418","1","","0","","276","","","0","","3"
"321934","Jo2063","Jaaman teollisuusalue L","62.67327093552629","29.78299993733303","2","","0","","276","","","0","","3"
"321935","Jo2068","Puntarikosken vanhatie I","62.685352540608996","29.6384578943253","2","","0","","276","","","0","","3"
"321936","Jo2069","Puntarikosken vanhatie L","62.685298272424944","29.638672471044373","2","","0","","276","","","0","","3"
"321937","Jo2065","Puntarikosken silta E","62.682643220465046","29.65677348510868","2","","0","","276","","","0","","3"
"321938","Jo2072","Puntarikaarentie E","62.66180468005751","29.689761847254807","2","","0","","276","","","0","","3"
"321939","Jo2070","Supantie E","62.66055932167857","29.695375710726818","2","","0","","276","","","0","","3"
"322014","Jo2053","Marjosärkäntie E","62.645793933316625","29.73453730345008","1","","0","","276","","","0","","3"
"322015","Jo2058","Kyyrönsuo-Puntarikoski P","62.65323454495538","29.70261901617105","1","","0","","276","","","0","","3"
"322016","Jo2057","Kyyrönsuontie th L","62.64537122310012","29.78375047445475","1","","0","","276","","","0","","3"
"322017","Jo2062","Susisalo I","62.66983296667654","29.753637313841292","2","","0","","276","","","0","","3"
"322018","Jo2061","Susisalo L","62.66970013783664","29.75310837005356","2","","0","","276","","","0","","3"
"322020","Jo2064","Jaaman teollisuusalue I","62.67327911719289","29.783691465852982","2","","0","","276","","","0","","3"
"322021","Jo2066","Puntarikosken uusitie E","62.68577822825085","29.649223659859498","2","","0","","276","","","0","","3"
"322022","Jo2067","Puntarikosken uusitie P","62.68592228423653","29.648395478724677","2","","0","","276","","","0","","3"
"322023","Jo2071","Puntarikaarentie P","62.661992320201996","29.689201265573523","2","","0","","276","","","0","","3"
"322024","Jo2074","Lampila E","62.65615518642211","29.699301123619446","1","","0","","276","","","0","","3"
"322025","Jo2073","Lampila P","62.6565398931753","29.698941257426917","1","","0","","276","","","0","","3"
"322414","Jo2075","Onttolan koulu I","62.64932557511011","29.678810309298196","1","","0","","276","","","0","","3"
"324115","Jo2076","Pöllönsuontie P","62.69682298092095","29.880459752509132","2","","0","","276","","","0","","3"
"324116","Jo2077","Pöllönsuontie E","62.69702121785265","29.880098104475","2","","0","","276","","","0","","3"
"324117","Jo2078","Valkealammentie P","62.702988753598284","29.873510599134505","2","","0","","276","","","0","","3"
"324118","Jo2080","Kimaranmutka I","62.7041605404392","29.886079430580143","2","","0","","276","","","0","","3"
"324119","Jo2082","Kuurnankoskentie E","62.70059857900382","29.899850734537683","2","","0","","276","","","0","","3"
"324120","Jo2083","Kuurnankoskentie P","62.70105356278748","29.89916592836612","2","","0","","276","","","0","","3"
"324214","Jo2079","Valkealammentie E","62.700767132674166","29.874411821366106","2","","0","","276","","","0","","3"
"324215","Jo2081","Kimaranmutka L","62.704183089932314","29.885905373290935","2","","0","","276","","","0","","3"
"325414","Jo5237","Honkalampikeskus L","62.61825558469505","29.508177646092207","2","","0","","426","","","0","","3"
"325415","Jo5236","Honkalampikeskus I","62.617820428809246","29.511896500590808","2","","0","","426","","","0","","3"
"325416","Jo5235","Sompalammentie L","62.61654859271968","29.5204012910947","2","","0","","426","","","0","","3"
"325417","Jo5234","Sompalammentie I","62.616165414747584","29.52266623789353","2","","0","","426","","","0","",""
"325418","Jo5233","Honkapurontie L","62.614201331042224","29.53537990862461","2","","0","","426","","","0","",""
"325419","Jo5232","Honkapurontie I","62.61390769429504","29.53767587954052","2","","0","","426","","","0","",""
"325450","","Saunakallio L","62.52623779490486","30.012731536393943","2","","0","","167","","","0","","3"
"325451","","Saunakallio I","62.52625723987185","30.012856274855928","2","","0","","167","","","0","","3"
"325452","","Riuttavaarantie P","62.54280758281452","30.00931228026129","2","","0","","167","","","0","","3"
"325453","","Riuttavaarantie E","62.5438967389596","30.008781583622387","2","","0","","167","","","0","","3"
"325454","","Särkivaara E","62.558688310582596","30.0117368306892","2","","0","","167","","","0","","3"
"325455","","Kypäräpuro E","62.569701593812525","30.006121244859333","2","","0","","167","","","0","","3"
"325456","","Kypäräpuro P","62.569768563456456","30.006028678005784","2","","0","","167","","","0","","3"
"325457","","Suokastie P","62.57958407123919","29.992235279065742","2","","0","","167","","","0","","3"
"325458","","Suokastie E","62.57967278552485","29.992148727175028","2","","0","","167","","","0","","3"
"325459","","Mäkisalontie E","62.59591302007253","29.931273494231075","2","","0","","325","","","0","","3"
"325460","","Mäkisalontie P","62.595387448922395","29.931609133879068","2","","0","","325","","","0","","3"
"325461","Jo0376","Parrutie L","62.63045513679659","29.767756462097523","1","","0","","167","","","0","","3"
"325518","","Iiksenniitty (tienhaara) P","62.58984264409778","29.93501320166407","2","","0","","276","","","0","","3"
"325519","","Iiksenjoentie E","62.599185297252816","29.86895632434347","1","","0","","167","","","0","","3"
"325520","","Iiksenjoentie P","62.59930963025184","29.868829847749822","1","","0","","167","","","0","","3"
"325614","","Iiksi-Nurmela P","62.58216656588074","29.915236383675435","2","","0","","276","","","0","","3"
"325615","","Iiksi-Nurmela E","62.58207672115356","29.915412184481415","2","","0","","276","","","0","","3"
"325624","","Savikontie th I","62.52427655941918","29.909044504165532","2","","0","","167","","","0","","3"
"325721","","Kumpu th I","62.52094399814085","29.87131341977093","2","","0","","167","","","0","","3"
"325722","","Sorsapurontie th L","62.52544023956261","29.900828897954035","2","","0","","167","","","0","","3"
"325723","","Sorsapurontie th I","62.525425917962224","29.901072978974092","2","","0","","167","","","0","","3"
"325724","","Savikontie th L","62.524259689071805","29.90893721580554","2","","0","","167","","","0","","3"
"326217","","Ahonkyläntie L","62.66033377325624","29.16542818361617","3","","0","","426","","","0","",""
"326218","","Ahonkyläntie I","62.66007138937388","29.166780016959535","3","","0","","426","","","0","",""
"331220","Jo0385","Meijerinurmi E","62.5585144280274","29.828095436096323","1","","0","","167","","","0","","3"
"331324","Jo0383","Haaparinne L","62.55602270532721","29.82251330895346","1","","0","","167","","","0","","3"
"331325","Jo0384","Haaparinne I","62.55646198552284","29.82449732770846","1","","0","","167","","","0","","3"
"331326","Jo0386","Meijerinurmi P","62.55761881698076","29.827837944031817","1","","0","","167","","","0","","3"
"331527","Jo2084","Pohjatuulentie pää","62.690887292149384","29.82337161583784","2","","0","","276","","","0","","3"
"331528","Jo2085","Kympintie P","62.68894986116651","29.818768369944245","2","","0","","276","","","0","","3"
"331529","Jo2086","Kympintie E","62.68870936603411","29.818313419818743","2","","0","","276","","","0","","3"
"331530","Jo2087","Kelutie P","62.68531377025379","29.815502464771125","2","","0","","276","","","0","","3"
"331531","Jo2088","Kelutie E","62.68500483662009","29.815655350685184","2","","0","","276","","","0","","3"
"331532","Jo2089","Voudintie P","62.68238307875557","29.81454223394494","2","","0","","276","","","0","","3"
"331533","Jo2090","Voudintie E","62.68256156259671","29.815022349358934","2","","0","","276","","","0","","3"
"331917","Jo0387","Perälä-Iiksenjoentie P","62.58465146938918","29.907075762747755","1","","0","","167","","","0","","3"
"331918","Jo2091","Salontie-Jokirannantie I","62.65603910788256","29.82155039591594","1","","0","","276","","","0","","3"
"332017","Jo0388","Perälä-IIksenjoentie E","62.58428486345186","29.907924568991294","1","","0","","167","","","0","","3"
"332018","Jo2092","Salontie-Jokirannantie L","62.656100797309","29.82062120872889","1","","0","","276","","","0","","3"
"332224","","Raatekangas E","62.62726010232738","29.777825252066545","1","","0","","167","","","0","",""
"334017","Jo0389","Ketunpesät I","62.560539362072866","29.893854704331865","1","","0","","167","","","0","","3"
"335118","Jo0390","Peltola E","62.59188722670648","29.768831558932447","1","","0","","167","","","0","","3"
"338220","Jo0391","Ketunpesäntie th P","62.56834918672419","29.864339676331273","1","","0","","167","","","2","","3"
"338317","Jo0392","Ketunpesäntie th E","62.56825801664479","29.864404499529872","1","","0","","167","","","2","","3"
"342738","Jo0393","Peltola P","62.59147250126966","29.769035425613303","1","","0","","167","","","0","","3"
"348518","Jo5027","Patteristo P","62.620893324107804","29.554464068841806","2","","0","","426","","","0","","3"
"348519","Jo5028","Patteristo E","62.62057893970368","29.554579854010335","2","","0","","426","","","0","","3"
"348520","Jo5029","Koulukeskus","62.62183223653105","29.551908373831772","2","","0","","426","","","0","","3"
"350817","Jo0394","Louhiojan koulu","62.802667836939555","30.112508166770795","3","","0","","167","","","0","","3"
"350818","Jo0395","Uimaharjun koulu","62.91227878859246","30.249070156554303","4","","0","","167","","","0","","3"
"352417","","Koninranta I","62.73850824239836","29.448846951972577","3","","0","","607","","","0","",""
"354725","Jo5037","Väinölä L","62.68130635413132","29.511679919745152","2","","0","","426","","","2","","3"
"354728","Jo5040","Veteläsuontie E","62.67063490676035","29.49053338387032","2","","0","","426","","","2","","3"
"354729","Jo5042","Pahalamminvaara E","62.662139294420925","29.49087134220482","2","","0","","426","","","2","","3"
"354731","Jo5044","Peräkylä E","62.640969094534746","29.568377177009825","2","","0","","426","","","2","","3"
"356717","Jo5046","Kuoringantie I","62.62601395963259","29.441560277496862","2","","0","","426","","","0","","3"
"356718","Jo5049","Kuorinka P","62.62502034666983","29.431357644157767","2","","0","","426","","","0","","3"
"356817","Jo5047","Kuoringantie L","62.62612674842947","29.440952096144006","2","","0","","426","","","0","","3"
"356818","Jo5048","Honkavaarantie P","62.62186031893979","29.465252909819124","2","","0","","426","","","0","","3"
"357217","Jo5051","Käsämä Vaiviontie E","62.636222756562255","29.372781071822224","2","","0","","426","","","0","","3"
"357518","Jo5052","Maaherrantie pohjoispää","62.71198926025443","29.54418495671054","2","","0","","426","","","0","","3"
"357718","Jo5054","Pärnävaarantie-Välikangas E","62.63459583621894","29.584520546509125","2","","0","","426","","","0","","3"
"357817","Jo5053","Pärnävaarantie-Välikangas L","62.63455802738795","29.58457993696742","2","","0","","426","","","0","","3"
"360119","Jo0397","Oravanmarjantie L","62.62625233474907","29.827095406203785","1","","0","","167","","","0","","3"
"360120","Jo0398","Koillispuiston kenttä","62.62647456107323","29.818161878745553","1","","0","","167","","","0","","3"
"366423","Jo0399","Mehtimäki E","62.60135822228304","29.747627828282866","1","","0","","167","","","0","","3"
"375718","Jo5055","Pärnävaarantie-Vaiviontie th","62.657754281830954","29.492407593884604","2","","0","","426","","","0","","3"
"379418","Jo0400","Kirkonmäki P","62.5960876487674","29.75187320677138","1","","0","","167","","","0","","3"
"379518","Jo0401","Kirkonmäki E","62.595965605905995","29.75176591841049","1","","0","","167","","","0","","3"
"380318","Jo0402","Suvantokatu P","62.59897969672776","29.754514482476516","1","","0","","137","","","0","","3"
"380418","Jo0403","Suvantokatu E","62.599143017545586","29.754670050599216","1","","0","","167","","","0","","3"
"380518","Jo5059","Pärnävaarantie","62.64939674821233","29.51020136849191","2","","0","","426","","","0","","4"
"380718","Jo0404","Hammaslahti","62.43342542357143","29.97054601293516","2","","0","","167","","","0","","3"
"412518","Jo0405","Vainoniemi P","62.60333988872449","29.724655877043322","1","","0","","167","","","0","","3"
"412618","Jo0406","Jalavatie E","62.60618311990976","29.72487459737312","1","","0","","167","","","0","","3"
"412718","Jo0407","Jalavatie P","62.606639002822305","29.72518208991247","1","","0","","167","","","0","","3"
"412719","Jo0408","Linnunlahti E","62.60859893089207","29.72707910116231","1","","0","","167","","","0","","3"
"412818","Jo0409","Linnunlahti P","62.60979720658324","29.72882031383846","1","","0","","167","","","0","","3"
"420118","Jo2093","Kuurnantie I","62.705130045199695","29.892106488818193","2","","0","","276","","","0","","3"
"420119","Jo2096","Kuusikuja th E","62.687128731131","29.919925120571786","2","","0","","276","","","0","","3"
"420218","Jo2094","Kuurnankorva E","62.69494665968239","29.903718867171385","2","","0","","276","","","0","","3"
"420318","Jo2095","Kuurnankorva P","62.69507223314295","29.903713136686456","2","","0","","276","","","0","","3"
"420418","Jo2097","Kuusikuja th P","62.68732367945532","29.919670496565725","2","","0","","276","","","0","","3"
"427519","Jo5060","Pärnävaarantie th","62.64679298426012","29.524195228900915","2","","0","","426","","","0","","3"
"429818","","Kunnasniementie th","62.775348439145745","29.54743184933455","3","","0","","607","","","0","","3"
"434018","Jo5061","Hopri P","62.6339526300367","29.546319124485695","2","","0","","426","","","0","","3"
"458918","Jo0412","Jukolankatu I","62.61433471286986","29.810660948752762","1","","0","","167","","","0","","3"
"459018","Jo0413","Kenttämiehentie L","62.60304520891191","29.74600045565531","1","","0","","167","","","0","","3"
"459118","Jo0414","Kenttämiehentie I","62.603007215578856","29.746204771459038","1","","0","","167","","","0","","3"
